{"type": "FeatureCollection", "description": "OSM amenities (churches, police, fuel, hospitals, schools, banks, markets, …) for Cotonou + Abomey-Calavi.", "source": "Overpass API · OpenStreetMap contributors", "features": [{"type": "Feature", "geometry": {"type": "Point", "coordinates": [2.4864546, 6.3687475]}, "properties": {"category": "fuel", "name": "TOTAL"}}, {"type": "Feature", "geometry": {"type": "Point", "coordinates": [2.3424965, 6.406674]}, "properties": {"category": "bank", "name": "institue de microfinance"}}, {"type": "Feature", "geometry": {"type": "Point", "coordinates": [2.4034131, 6.3477453]}, "properties": {"category": "hotel", "name": "Arcada Marina"}}, {"type": "Feature", "geometry": {"type": "Point", "coordinates": [2.3404371, 6.3510617]}, "properties": {"category": "restaurant", "name": "Chez Papa Poochy"}}, {"type": "Feature", "geometry": {"type": "Point", "coordinates": [2.386957, 6.3490155]}, "properties": {"category": "supermarket", "name": "Erevan Hypermarket"}}, {"type": "Feature", "geometry": {"type": "Point", "coordinates": [2.3865502, 6.3496093]}, "properties": {"category": "atm", "name": "Ecobank"}}, {"type": "Feature", "geometry": {"type": "Point", "coordinates": [2.4834347, 6.7121166]}, "properties": {"category": "townhall", "name": "Mairie d'Adjohoun"}}, {"type": "Feature", "geometry": {"type": "Point", "coordinates": [2.404173, 6.3568711]}, "properties": {"category": "hotel", "name": "Chant d'oiseau"}}, {"type": "Feature", "geometry": {"type": "Point", "coordinates": [2.3563722, 6.4613357]}, "properties": {"category": "bank", "name": "Bank of Africa - BOA"}}, {"type": "Feature", "geometry": {"type": "Point", "coordinates": [2.3393859, 6.4024688]}, "properties": {"category": "pharmacy", "name": "Pharmacie Le Jourdain"}}, {"type": "Feature", "geometry": {"type": "Point", "coordinates": [2.4315012, 6.3584067]}, "properties": {"category": "pharmacy", "name": "Pharmacie Jonquet"}}, {"type": "Feature", "geometry": {"type": "Point", "coordinates": [2.4196446, 6.3595055]}, "properties": {"category": "restaurant", "name": "Costa Rica"}}, {"type": "Feature", "geometry": {"type": "Point", "coordinates": [2.419832, 6.359374]}, "properties": {"category": "atm", "name": "Bank of Africa"}}, {"type": "Feature", "geometry": {"type": "Point", "coordinates": [2.4119822, 6.3712804]}, "properties": {"category": "restaurant", "name": "Chez Ornella"}}, {"type": "Feature", "geometry": {"type": "Point", "coordinates": [2.4212026, 6.3605933]}, "properties": {"category": "fuel", "name": "ORYX ENERGIE"}}, {"type": "Feature", "geometry": {"type": "Point", "coordinates": [2.420098, 6.3595945]}, "properties": {"category": "atm", "name": "Ecobank"}}, {"type": "Feature", "geometry": {"type": "Point", "coordinates": [2.4125481, 6.3602794]}, "properties": {"category": "bar", "name": "Bar Restaurant Océan d'Amour"}}, {"type": "Feature", "geometry": {"type": "Point", "coordinates": [2.4136701, 6.3608751]}, "properties": {"category": "school", "name": "EPP Saint Jean I"}}, {"type": "Feature", "geometry": {"type": "Point", "coordinates": [2.4135198, 6.3607328]}, "properties": {"category": "place_of_worship", "name": "Église de Jésus Christ des Saints des Derniers jours"}}, {"type": "Feature", "geometry": {"type": "Point", "coordinates": [2.4122242, 6.3600164]}, "properties": {"category": "bar", "name": "Maquis Au Grand Carrefour"}}, {"type": "Feature", "geometry": {"type": "Point", "coordinates": [2.4154211, 6.3613368]}, "properties": {"category": "cafe", "name": "Cafetariat"}}, {"type": "Feature", "geometry": {"type": "Point", "coordinates": [2.4159512, 6.3611713]}, "properties": {"category": "cafe", "name": "Cyber Notre Dame"}}, {"type": "Feature", "geometry": {"type": "Point", "coordinates": [2.414443, 6.3617523]}, "properties": {"category": "bank", "name": "Bank of Africa"}}, {"type": "Feature", "geometry": {"type": "Point", "coordinates": [2.4154173, 6.3616405]}, "properties": {"category": "fuel", "name": "Station SAFEGUARD"}}, {"type": "Feature", "geometry": {"type": "Point", "coordinates": [2.4154696, 6.3605048]}, "properties": {"category": "restaurant", "name": "Bar Restaurant Attieke"}}, {"type": "Feature", "geometry": {"type": "Point", "coordinates": [2.4130239, 6.3596456]}, "properties": {"category": "college", "name": "Centre Béninois des Langues Étrangères"}}, {"type": "Feature", "geometry": {"type": "Point", "coordinates": [2.3996475, 6.3569322]}, "properties": {"category": "restaurant", "name": "Restaurant Hai King"}}, {"type": "Feature", "geometry": {"type": "Point", "coordinates": [2.3999041, 6.35692]}, "properties": {"category": "fast_food", "name": "Festival des Glaces"}}, {"type": "Feature", "geometry": {"type": "Point", "coordinates": [2.3920803, 6.3898207]}, "properties": {"category": "convenience", "name": "Le Secret d'Afrique"}}, {"type": "Feature", "geometry": {"type": "Point", "coordinates": [2.3902366, 6.3781996]}, "properties": {"category": "pharmacy", "name": "Pharmacie Marché Vedoko"}}, {"type": "Feature", "geometry": {"type": "Point", "coordinates": [2.4124506, 6.3738134]}, "properties": {"category": "convenience", "name": "DAANON"}}, {"type": "Feature", "geometry": {"type": "Point", "coordinates": [2.4365802, 6.3589357]}, "properties": {"category": "hotel", "name": "Hôtel Vickinfel"}}, {"type": "Feature", "geometry": {"type": "Point", "coordinates": [2.3675077, 6.3627346]}, "properties": {"category": "place_of_worship", "name": ""}}, {"type": "Feature", "geometry": {"type": "Point", "coordinates": [2.4402318, 6.3720958]}, "properties": {"category": "place_of_worship", "name": ""}}, {"type": "Feature", "geometry": {"type": "Point", "coordinates": [2.4381549, 6.3563175]}, "properties": {"category": "fuel", "name": "Sanacop"}}, {"type": "Feature", "geometry": {"type": "Point", "coordinates": [2.4236528, 6.3594887]}, "properties": {"category": "convenience", "name": "Ramatuelle"}}, {"type": "Feature", "geometry": {"type": "Point", "coordinates": [2.3883454, 6.3533983]}, "properties": {"category": "restaurant", "name": "Le Macumba"}}, {"type": "Feature", "geometry": {"type": "Point", "coordinates": [2.3909428, 6.3787742]}, "properties": {"category": "clinic", "name": "Clinique Cega"}}, {"type": "Feature", "geometry": {"type": "Point", "coordinates": [2.3447079, 6.3950533]}, "properties": {"category": "place_of_worship", "name": "Eglise Méthodiste Godomey"}}, {"type": "Feature", "geometry": {"type": "Point", "coordinates": [2.395461, 6.3787752]}, "properties": {"category": "place_of_worship", "name": "Institut biblique Alpha et Omega"}}, {"type": "Feature", "geometry": {"type": "Point", "coordinates": [2.3844969, 6.3862363]}, "properties": {"category": "townhall", "name": "Mairie du 10ᵉ arrondissement"}}, {"type": "Feature", "geometry": {"type": "Point", "coordinates": [2.3311597, 6.4548998]}, "properties": {"category": "school", "name": "Complexe scolaire Jean Piagiet II"}}, {"type": "Feature", "geometry": {"type": "Point", "coordinates": [2.3059166, 6.4635422]}, "properties": {"category": "marketplace", "name": "Marché Togba"}}, {"type": "Feature", "geometry": {"type": "Point", "coordinates": [2.341918, 6.4054126]}, "properties": {"category": "pharmacy", "name": "Pharmacie Togoudo"}}, {"type": "Feature", "geometry": {"type": "Point", "coordinates": [2.3838435, 6.3851686]}, "properties": {"category": "clinic", "name": "Clinique St Vincent de Paul"}}, {"type": "Feature", "geometry": {"type": "Point", "coordinates": [2.3854563, 6.3869186]}, "properties": {"category": "school", "name": "Ecolle maternelle les bourgillons"}}, {"type": "Feature", "geometry": {"type": "Point", "coordinates": [2.3858327, 6.3827671]}, "properties": {"category": "place_of_worship", "name": "Eglise Evangélique"}}, {"type": "Feature", "geometry": {"type": "Point", "coordinates": [2.3832363, 6.3850208]}, "properties": {"category": "restaurant", "name": "Restaurant viande de porc Le projet"}}, {"type": "Feature", "geometry": {"type": "Point", "coordinates": [2.381949, 6.3825642]}, "properties": {"category": "clinic", "name": "Clinique Fandinan"}}, {"type": "Feature", "geometry": {"type": "Point", "coordinates": [2.3830465, 6.3847451]}, "properties": {"category": "school", "name": "Ecole primaire privée la Fraternité"}}, {"type": "Feature", "geometry": {"type": "Point", "coordinates": [2.3869449, 6.3851039]}, "properties": {"category": "school", "name": "École primaire privée"}}, {"type": "Feature", "geometry": {"type": "Point", "coordinates": [2.3817853, 6.3846252]}, "properties": {"category": "hotel", "name": "Hôtel Peace and Love"}}, {"type": "Feature", "geometry": {"type": "Point", "coordinates": [2.3824323, 6.383941]}, "properties": {"category": "hotel", "name": "Hôtel chez Clarisse"}}, {"type": "Feature", "geometry": {"type": "Point", "coordinates": [2.3808131, 6.3834252]}, "properties": {"category": "fuel", "name": "Station SOLEN"}}, {"type": "Feature", "geometry": {"type": "Point", "coordinates": [2.3884971, 6.3537235]}, "properties": {"category": "hotel", "name": "Hôtel Best western plus"}}, {"type": "Feature", "geometry": {"type": "Point", "coordinates": [2.3825173, 6.3799358]}, "properties": {"category": "hotel", "name": "Hôtel Calos"}}, {"type": "Feature", "geometry": {"type": "Point", "coordinates": [2.3822174, 6.3799608]}, "properties": {"category": "guest_house", "name": "Résidence Acajou"}}, {"type": "Feature", "geometry": {"type": "Point", "coordinates": [2.4707335, 6.366842]}, "properties": {"category": "fuel", "name": ""}}, {"type": "Feature", "geometry": {"type": "Point", "coordinates": [2.4369115, 6.3552315]}, "properties": {"category": "restaurant", "name": "La Gerbe d'Or"}}, {"type": "Feature", "geometry": {"type": "Point", "coordinates": [2.4450372, 6.3591093]}, "properties": {"category": "hotel", "name": "Hôtel du lac"}}, {"type": "Feature", "geometry": {"type": "Point", "coordinates": [2.4008066, 6.3569121]}, "properties": {"category": "pharmacy", "name": "Pharmacie"}}, {"type": "Feature", "geometry": {"type": "Point", "coordinates": [2.4472293, 6.3733765]}, "properties": {"category": "school", "name": "Centre d'Etude et de Documentation"}}, {"type": "Feature", "geometry": {"type": "Point", "coordinates": [2.4638263, 6.3575087]}, "properties": {"category": "hotel", "name": "El Dorado Beach Club"}}, {"type": "Feature", "geometry": {"type": "Point", "coordinates": [2.3581161, 6.4841118]}, "properties": {"category": "place_of_worship", "name": "Branch Office of Jehovah's Witnesses"}}, {"type": "Feature", "geometry": {"type": "Point", "coordinates": [2.345033, 6.395434]}, "properties": {"category": "school", "name": "CSP de Godomey"}}, {"type": "Feature", "geometry": {"type": "Point", "coordinates": [2.347865, 6.393268]}, "properties": {"category": "bar", "name": "Bar-Restaurant Vallée des grands"}}, {"type": "Feature", "geometry": {"type": "Point", "coordinates": [2.3494045, 6.3924042]}, "properties": {"category": "cafe", "name": "Cafetariat chet Diallo"}}, {"type": "Feature", "geometry": {"type": "Point", "coordinates": [2.3497459, 6.3922589]}, "properties": {"category": "bar", "name": "Forty VIP Club"}}, {"type": "Feature", "geometry": {"type": "Point", "coordinates": [2.3504528, 6.3919274]}, "properties": {"category": "place_of_worship", "name": "Mosquée centrale de Godomey"}}, {"type": "Feature", "geometry": {"type": "Point", "coordinates": [2.3496909, 6.3922788]}, "properties": {"category": "pharmacy", "name": "Pharmacie Ste Adèle"}}, {"type": "Feature", "geometry": {"type": "Point", "coordinates": [2.34485, 6.394968]}, "properties": {"category": "marketplace", "name": ""}}, {"type": "Feature", "geometry": {"type": "Point", "coordinates": [2.348341, 6.395809]}, "properties": {"category": "bar", "name": "Bar Maquis Rencontre des Intimes"}}, {"type": "Feature", "geometry": {"type": "Point", "coordinates": [2.3493894, 6.3959735]}, "properties": {"category": "school", "name": "Complexe Scolaire Godomey Houalakomey A-B-C"}}, {"type": "Feature", "geometry": {"type": "Point", "coordinates": [2.347817, 6.3962869]}, "properties": {"category": "place_of_worship", "name": "Ministère de la Nontagne de Feu et des Miracles (MFM) Godomey"}}, {"type": "Feature", "geometry": {"type": "Point", "coordinates": [2.348277, 6.396718]}, "properties": {"category": "place_of_worship", "name": "Mission de la Compation et de la Grâce Divine"}}, {"type": "Feature", "geometry": {"type": "Point", "coordinates": [2.3506084, 6.3924928]}, "properties": {"category": "restaurant", "name": "Bar Restaurant Begonia"}}, {"type": "Feature", "geometry": {"type": "Point", "coordinates": [2.3510842, 6.3920203]}, "properties": {"category": "restaurant", "name": "Centre Nutironnel Jean Pliya"}}, {"type": "Feature", "geometry": {"type": "Point", "coordinates": [2.3475255, 6.3962015]}, "properties": {"category": "clinic", "name": "Clinique d'accouchement Dofon"}}, {"type": "Feature", "geometry": {"type": "Point", "coordinates": [2.342825, 6.393835]}, "properties": {"category": "pharmacy", "name": "Pharmacie Godomey centre"}}, {"type": "Feature", "geometry": {"type": "Point", "coordinates": [2.34669, 6.3960645]}, "properties": {"category": "police", "name": "Commissariat d'arrondissement de Godomey"}}, {"type": "Feature", "geometry": {"type": "Point", "coordinates": [2.3442378, 6.3923869]}, "properties": {"category": "bank", "name": "ACFB"}}, {"type": "Feature", "geometry": {"type": "Point", "coordinates": [2.3437908, 6.3907302]}, "properties": {"category": "hostel", "name": "Maison des Jeunes de Godomey"}}, {"type": "Feature", "geometry": {"type": "Point", "coordinates": [2.3494143, 6.3957656]}, "properties": {"category": "school", "name": "Complexe Scolaire Publique Houalakomey"}}, {"type": "Feature", "geometry": {"type": "Point", "coordinates": [2.3465274, 6.3954287]}, "properties": {"category": "school", "name": "Complexe Scolaire Privé Toberger"}}, {"type": "Feature", "geometry": {"type": "Point", "coordinates": [2.3516973, 6.3928839]}, "properties": {"category": "school", "name": "CS Dieu le Père"}}, {"type": "Feature", "geometry": {"type": "Point", "coordinates": [2.3532978, 6.3917993]}, "properties": {"category": "restaurant", "name": "Chez Nafi"}}, {"type": "Feature", "geometry": {"type": "Point", "coordinates": [2.3375205, 6.4015109]}, "properties": {"category": "bar", "name": "Bar Restaurant Escalier"}}, {"type": "Feature", "geometry": {"type": "Point", "coordinates": [2.3361611, 6.4018588]}, "properties": {"category": "school", "name": "Complèxe scolaire \"Le Ferger\""}}, {"type": "Feature", "geometry": {"type": "Point", "coordinates": [2.3352245, 6.4018911]}, "properties": {"category": "place_of_worship", "name": "Saint Michel de Togoudo"}}, {"type": "Feature", "geometry": {"type": "Point", "coordinates": [2.340408, 6.418572]}, "properties": {"category": "university", "name": "École Nationale d’Administartion et de Magistrature"}}, {"type": "Feature", "geometry": {"type": "Point", "coordinates": [2.3422, 6.416003]}, "properties": {"category": "university", "name": "Faculté de Droit et Sciences Politiques"}}, {"type": "Feature", "geometry": {"type": "Point", "coordinates": [2.3432936, 6.4154003]}, "properties": {"category": "university", "name": "Faculté de Lettres, Arts et Sciences Humaines"}}, {"type": "Feature", "geometry": {"type": "Point", "coordinates": [2.341917, 6.416288]}, "properties": {"category": "university", "name": "Faculté des Sciences Agronomiques"}}, {"type": "Feature", "geometry": {"type": "Point", "coordinates": [2.3409163, 6.4198676]}, "properties": {"category": "university", "name": "Administration Faseg"}}, {"type": "Feature", "geometry": {"type": "Point", "coordinates": [2.3449797, 6.4142902]}, "properties": {"category": "atm", "name": "Ecobank (distributeur automatique)"}}, {"type": "Feature", "geometry": {"type": "Point", "coordinates": [2.3599726, 6.3933546]}, "properties": {"category": "convenience", "name": "Alimentation Générale"}}, {"type": "Feature", "geometry": {"type": "Point", "coordinates": [2.373739, 6.3885506]}, "properties": {"category": "hotel", "name": "Résidence Jeanne d'Arc"}}, {"type": "Feature", "geometry": {"type": "Point", "coordinates": [2.3768588, 6.3838508]}, "properties": {"category": "hotel", "name": "Pantagruel"}}, {"type": "Feature", "geometry": {"type": "Point", "coordinates": [2.418456, 6.3561527]}, "properties": {"category": "pharmacy", "name": "Pharmacie Camp Guezo"}}, {"type": "Feature", "geometry": {"type": "Point", "coordinates": [2.3795598, 6.3817438]}, "properties": {"category": "pharmacy", "name": "Pharmacie de l’amitie"}}, {"type": "Feature", "geometry": {"type": "Point", "coordinates": [2.4256843, 6.3720664]}, "properties": {"category": "bank", "name": "BIBE JERICHO"}}, {"type": "Feature", "geometry": {"type": "Point", "coordinates": [2.4100402, 6.3791692]}, "properties": {"category": "bank", "name": "Bank of Africa"}}, {"type": "Feature", "geometry": {"type": "Point", "coordinates": [2.4373708, 6.3560352]}, "properties": {"category": "bank", "name": ""}}, {"type": "Feature", "geometry": {"type": "Point", "coordinates": [2.4353425, 6.3599701]}, "properties": {"category": "bank", "name": "Ecobank"}}, {"type": "Feature", "geometry": {"type": "Point", "coordinates": [2.4363023, 6.3589863]}, "properties": {"category": "pharmacy", "name": "pharmacie Vogue"}}, {"type": "Feature", "geometry": {"type": "Point", "coordinates": [2.4363194, 6.3545983]}, "properties": {"category": "bank", "name": "SGBBE agence ganhi"}}, {"type": "Feature", "geometry": {"type": "Point", "coordinates": [2.4339, 6.3616997]}, "properties": {"category": "bank", "name": "DIamond Bank Agence Steinmetz"}}, {"type": "Feature", "geometry": {"type": "Point", "coordinates": [2.4342969, 6.3537422]}, "properties": {"category": "bank", "name": "Bank Atlantique (Direction générale)"}}, {"type": "Feature", "geometry": {"type": "Point", "coordinates": [2.4286685, 6.3531616]}, "properties": {"category": "bank", "name": "BIBE direction générale"}}, {"type": "Feature", "geometry": {"type": "Point", "coordinates": [2.4271836, 6.352383]}, "properties": {"category": "bank", "name": "UBA direction générale"}}, {"type": "Feature", "geometry": {"type": "Point", "coordinates": [2.4310315, 6.3652736]}, "properties": {"category": "bank", "name": "BGFI bank agence steinmetz"}}, {"type": "Feature", "geometry": {"type": "Point", "coordinates": [2.4206788, 6.366164]}, "properties": {"category": "pharmacy", "name": "Pharmacie Adéchina"}}, {"type": "Feature", "geometry": {"type": "Point", "coordinates": [2.4320203, 6.3522259]}, "properties": {"category": "bank", "name": "Bank Of Africa direction générale"}}, {"type": "Feature", "geometry": {"type": "Point", "coordinates": [2.4344736, 6.3617048]}, "properties": {"category": "pharmacy", "name": "pharmacie atinkanmey"}}, {"type": "Feature", "geometry": {"type": "Point", "coordinates": [2.4343377, 6.3618819]}, "properties": {"category": "bank", "name": "Atlantique Banque Agence Steinmetz"}}, {"type": "Feature", "geometry": {"type": "Point", "coordinates": [2.4292594, 6.3667879]}, "properties": {"category": "bank", "name": "Orabank Agence Saint Michel"}}, {"type": "Feature", "geometry": {"type": "Point", "coordinates": [2.4280436, 6.3659867]}, "properties": {"category": "bank", "name": "Bank of Africa"}}, {"type": "Feature", "geometry": {"type": "Point", "coordinates": [2.4271065, 6.3651395]}, "properties": {"category": "bank", "name": "SGBBE agence saint michel"}}, {"type": "Feature", "geometry": {"type": "Point", "coordinates": [2.4249277, 6.3633476]}, "properties": {"category": "bank", "name": "Ecobank"}}, {"type": "Feature", "geometry": {"type": "Point", "coordinates": [2.42935, 6.3664602]}, "properties": {"category": "pharmacy", "name": "pharmacie saint michel"}}, {"type": "Feature", "geometry": {"type": "Point", "coordinates": [2.427977, 6.3659243]}, "properties": {"category": "bank", "name": "BSIC Agence Saint Michel"}}, {"type": "Feature", "geometry": {"type": "Point", "coordinates": [2.4241742, 6.3674063]}, "properties": {"category": "pharmacy", "name": "pharmacie forum santé"}}, {"type": "Feature", "geometry": {"type": "Point", "coordinates": [2.4285659, 6.368423]}, "properties": {"category": "bank", "name": "Diamond Bank Agence Saint Michel"}}, {"type": "Feature", "geometry": {"type": "Point", "coordinates": [2.425077, 6.3601763]}, "properties": {"category": "bank", "name": "Bank of Africa"}}, {"type": "Feature", "geometry": {"type": "Point", "coordinates": [2.4288576, 6.368684]}, "properties": {"category": "pharmacy", "name": "Pharmacie Sainte Cecile"}}, {"type": "Feature", "geometry": {"type": "Point", "coordinates": [2.4290598, 6.3680848]}, "properties": {"category": "bank", "name": "Bank of Africa"}}, {"type": "Feature", "geometry": {"type": "Point", "coordinates": [2.4376024, 6.3540728]}, "properties": {"category": "bank", "name": "BSIC agence ganhi"}}, {"type": "Feature", "geometry": {"type": "Point", "coordinates": [2.4376823, 6.353404]}, "properties": {"category": "bank", "name": "Ecobank direction générale agency principale ganhi"}}, {"type": "Feature", "geometry": {"type": "Point", "coordinates": [2.4365494, 6.353392]}, "properties": {"category": "bank", "name": "Atlantic Banque, Agence Ganhi"}}, {"type": "Feature", "geometry": {"type": "Point", "coordinates": [2.4377011, 6.3552732]}, "properties": {"category": "bank", "name": "Bank of Africa"}}, {"type": "Feature", "geometry": {"type": "Point", "coordinates": [2.4347023, 6.3618307]}, "properties": {"category": "clinic", "name": "Polyclinique Atinkanmey"}}, {"type": "Feature", "geometry": {"type": "Point", "coordinates": [2.4258528, 6.359654]}, "properties": {"category": "pharmacy", "name": "Zongo"}}, {"type": "Feature", "geometry": {"type": "Point", "coordinates": [2.420449, 6.364501]}, "properties": {"category": "clinic", "name": "Clinique les Graces"}}, {"type": "Feature", "geometry": {"type": "Point", "coordinates": [2.3744395, 6.3860489]}, "properties": {"category": "clinic", "name": "clinique Mermah"}}, {"type": "Feature", "geometry": {"type": "Point", "coordinates": [2.3687693, 6.3875949]}, "properties": {"category": "pharmacy", "name": "Nouvelle Pharmacie Mènontin"}}, {"type": "Feature", "geometry": {"type": "Point", "coordinates": [2.3740903, 6.3884101]}, "properties": {"category": "clinic", "name": "Clinique Branda"}}, {"type": "Feature", "geometry": {"type": "Point", "coordinates": [2.3846739, 6.386889]}, "properties": {"category": "pharmacy", "name": "pharmacie renouveau"}}, {"type": "Feature", "geometry": {"type": "Point", "coordinates": [2.3878603, 6.3903108]}, "properties": {"category": "bank", "name": "Bank of Africa"}}, {"type": "Feature", "geometry": {"type": "Point", "coordinates": [2.3897234, 6.3910522]}, "properties": {"category": "bank", "name": "Ecobank"}}, {"type": "Feature", "geometry": {"type": "Point", "coordinates": [2.3828379, 6.3921655]}, "properties": {"category": "pharmacy", "name": "pharmacie Zogbohoue"}}, {"type": "Feature", "geometry": {"type": "Point", "coordinates": [2.3741556, 6.3829009]}, "properties": {"category": "bank", "name": "BGFI bank agence stade de l'amitie"}}, {"type": "Feature", "geometry": {"type": "Point", "coordinates": [2.3648379, 6.3920263]}, "properties": {"category": "pharmacy", "name": "Pharmacie Kindonou"}}, {"type": "Feature", "geometry": {"type": "Point", "coordinates": [2.3746531, 6.3883621]}, "properties": {"category": "pharmacy", "name": "Pharmacie Sainte Famile"}}, {"type": "Feature", "geometry": {"type": "Point", "coordinates": [2.3879721, 6.3900911]}, "properties": {"category": "pharmacy", "name": "pharmacie Zogbo"}}, {"type": "Feature", "geometry": {"type": "Point", "coordinates": [2.3934549, 6.3908238]}, "properties": {"category": "pharmacy", "name": "pharmacie le tamaya"}}, {"type": "Feature", "geometry": {"type": "Point", "coordinates": [2.3977869, 6.3908344]}, "properties": {"category": "pharmacy", "name": "Pharmacie Palace Plus"}}, {"type": "Feature", "geometry": {"type": "Point", "coordinates": [2.4166009, 6.3705625]}, "properties": {"category": "pharmacy", "name": "Pharmacie Marina"}}, {"type": "Feature", "geometry": {"type": "Point", "coordinates": [2.369934, 6.3923411]}, "properties": {"category": "school", "name": "CEG"}}, {"type": "Feature", "geometry": {"type": "Point", "coordinates": [2.3082869, 6.5306174]}, "properties": {"category": "school", "name": ""}}, {"type": "Feature", "geometry": {"type": "Point", "coordinates": [2.3474048, 6.5271851]}, "properties": {"category": "school", "name": ""}}, {"type": "Feature", "geometry": {"type": "Point", "coordinates": [2.3624358, 6.3890026]}, "properties": {"category": "hostel", "name": "Auberge l'Abri"}}, {"type": "Feature", "geometry": {"type": "Point", "coordinates": [2.3639822, 6.3887437]}, "properties": {"category": "supermarket", "name": "Bénin marché"}}, {"type": "Feature", "geometry": {"type": "Point", "coordinates": [2.3429509, 6.4133264]}, "properties": {"category": "bank", "name": "Ecobank"}}, {"type": "Feature", "geometry": {"type": "Point", "coordinates": [2.3398385, 6.4118343]}, "properties": {"category": "university", "name": "Institut Confucius"}}, {"type": "Feature", "geometry": {"type": "Point", "coordinates": [2.3410377, 6.4127469]}, "properties": {"category": "university", "name": "Institut National de l'Eau"}}, {"type": "Feature", "geometry": {"type": "Point", "coordinates": [2.3450046, 6.4144362]}, "properties": {"category": "atm", "name": "BANK OF AFRICA"}}, {"type": "Feature", "geometry": {"type": "Point", "coordinates": [2.341015, 6.4149035]}, "properties": {"category": "fuel", "name": ""}}, {"type": "Feature", "geometry": {"type": "Point", "coordinates": [2.3186322, 6.4231951]}, "properties": {"category": "clinic", "name": "Clinique Mahungon de Tankpè"}}, {"type": "Feature", "geometry": {"type": "Point", "coordinates": [2.3183092, 6.4229171]}, "properties": {"category": "cafe", "name": "ETS Centre Psycho-social"}}, {"type": "Feature", "geometry": {"type": "Point", "coordinates": [2.3182119, 6.4228431]}, "properties": {"category": "place_of_worship", "name": "Églice de pentecôte de Tankpè"}}, {"type": "Feature", "geometry": {"type": "Point", "coordinates": [2.4395118, 6.3546133]}, "properties": {"category": "restaurant", "name": "Lounge Bar PREMIUM"}}, {"type": "Feature", "geometry": {"type": "Point", "coordinates": [2.425948, 6.3724951]}, "properties": {"category": "bank", "name": "BIBE JERICHO"}}, {"type": "Feature", "geometry": {"type": "Point", "coordinates": [2.37263, 6.3904737]}, "properties": {"category": "clinic", "name": "Centre Médico-Social Mahugnon de Menontin"}}, {"type": "Feature", "geometry": {"type": "Point", "coordinates": [2.4263391, 6.372543]}, "properties": {"category": "university", "name": "Ecole Supérieure de Gestion d’Informatique et des Sciences"}}, {"type": "Feature", "geometry": {"type": "Point", "coordinates": [2.4390147, 6.354299]}, "properties": {"category": "restaurant", "name": "GRAND MONDE"}}, {"type": "Feature", "geometry": {"type": "Point", "coordinates": [2.4393617, 6.3542657]}, "properties": {"category": "restaurant", "name": "MAMAN ANGELO"}}, {"type": "Feature", "geometry": {"type": "Point", "coordinates": [2.298567, 6.3933187]}, "properties": {"category": "clinic", "name": "AVE MARIA DE COCOTOMEY"}}, {"type": "Feature", "geometry": {"type": "Point", "coordinates": [2.291295, 6.39522]}, "properties": {"category": "school", "name": "Complexe scolaire Ilot du savoir"}}, {"type": "Feature", "geometry": {"type": "Point", "coordinates": [2.3007177, 6.3886483]}, "properties": {"category": "pharmacy", "name": "La Concorde"}}, {"type": "Feature", "geometry": {"type": "Point", "coordinates": [2.2989434, 6.3937686]}, "properties": {"category": "place_of_worship", "name": "Mission evangelique des Afranchis"}}, {"type": "Feature", "geometry": {"type": "Point", "coordinates": [2.3011117, 6.3937164]}, "properties": {"category": "police", "name": "Brigarde Territoriale de Cocotomey"}}, {"type": "Feature", "geometry": {"type": "Point", "coordinates": [2.3009916, 6.3934471]}, "properties": {"category": "school", "name": "EPP St Francois d'Assise de Cocotomey"}}, {"type": "Feature", "geometry": {"type": "Point", "coordinates": [2.3000377, 6.391515]}, "properties": {"category": "place_of_worship", "name": "Christianisme Celeste"}}, {"type": "Feature", "geometry": {"type": "Point", "coordinates": [2.2910425, 6.3959628]}, "properties": {"category": "school", "name": "Complexe Scolaire Hoceriz 1er"}}, {"type": "Feature", "geometry": {"type": "Point", "coordinates": [2.3021998, 6.3950973]}, "properties": {"category": "school", "name": "Complexe Scolaire La Misericorde"}}, {"type": "Feature", "geometry": {"type": "Point", "coordinates": [2.3016068, 6.3967769]}, "properties": {"category": "school", "name": "Complexe Scolaire Ste Victorine"}}, {"type": "Feature", "geometry": {"type": "Point", "coordinates": [2.2924033, 6.392587]}, "properties": {"category": "school", "name": "Ecole primaire privée Dantonus"}}, {"type": "Feature", "geometry": {"type": "Point", "coordinates": [2.2922992, 6.3932275]}, "properties": {"category": "hostel", "name": "Le 14 février"}}, {"type": "Feature", "geometry": {"type": "Point", "coordinates": [2.2934612, 6.3925204]}, "properties": {"category": "school", "name": "Groupe Scolaire la Surete"}}, {"type": "Feature", "geometry": {"type": "Point", "coordinates": [2.4235727, 6.3704781]}, "properties": {"category": "fuel", "name": "BP"}}, {"type": "Feature", "geometry": {"type": "Point", "coordinates": [2.442654, 6.3720794]}, "properties": {"category": "pharmacy", "name": "Pharmacie Saint Raphaël"}}, {"type": "Feature", "geometry": {"type": "Point", "coordinates": [2.4714228, 6.3767429]}, "properties": {"category": "place_of_worship", "name": "Mosquée centrale d'Avotrou"}}, {"type": "Feature", "geometry": {"type": "Point", "coordinates": [2.3288639, 6.374847]}, "properties": {"category": "school", "name": "Compexe Scolaire Bénédicte"}}, {"type": "Feature", "geometry": {"type": "Point", "coordinates": [2.3285038, 6.3753267]}, "properties": {"category": "clinic", "name": "Ong Orphes"}}, {"type": "Feature", "geometry": {"type": "Point", "coordinates": [2.3642912, 6.3882187]}, "properties": {"category": "bank", "name": "Diamond Bank Agence Menontin"}}, {"type": "Feature", "geometry": {"type": "Point", "coordinates": [2.3499055, 6.387675]}, "properties": {"category": "bank", "name": "Ecobank SA Agence Godomey"}}, {"type": "Feature", "geometry": {"type": "Point", "coordinates": [2.3281168, 6.3753349]}, "properties": {"category": "cafe", "name": "Cyber Café"}}, {"type": "Feature", "geometry": {"type": "Point", "coordinates": [2.3618584, 6.4997882]}, "properties": {"category": "place_of_worship", "name": "Immaculé Conception d'Akassato"}}, {"type": "Feature", "geometry": {"type": "Point", "coordinates": [2.3951626, 6.3566952]}, "properties": {"category": "restaurant", "name": "Carré soleil"}}, {"type": "Feature", "geometry": {"type": "Point", "coordinates": [2.3939254, 6.3551687]}, "properties": {"category": "college", "name": "Collège d'Enseignement Général l'Océan"}}, {"type": "Feature", "geometry": {"type": "Point", "coordinates": [2.3968894, 6.3566574]}, "properties": {"category": "restaurant", "name": "Cordon bleu"}}, {"type": "Feature", "geometry": {"type": "Point", "coordinates": [2.3936201, 6.356758]}, "properties": {"category": "restaurant", "name": "Domino"}}, {"type": "Feature", "geometry": {"type": "Point", "coordinates": [2.3928528, 6.3558074]}, "properties": {"category": "school", "name": "Ecole Les cocotiers"}}, {"type": "Feature", "geometry": {"type": "Point", "coordinates": [2.3955912, 6.3566074]}, "properties": {"category": "bar", "name": "La brasserie"}}, {"type": "Feature", "geometry": {"type": "Point", "coordinates": [2.3963089, 6.3566599]}, "properties": {"category": "supermarket", "name": "La championne"}}, {"type": "Feature", "geometry": {"type": "Point", "coordinates": [2.399755, 6.3560099]}, "properties": {"category": "post_office", "name": "La Poste"}}, {"type": "Feature", "geometry": {"type": "Point", "coordinates": [2.3970724, 6.3565823]}, "properties": {"category": "restaurant", "name": "Le Lambi's"}}, {"type": "Feature", "geometry": {"type": "Point", "coordinates": [2.3960352, 6.3566008]}, "properties": {"category": "restaurant", "name": "Le Marrakech"}}, {"type": "Feature", "geometry": {"type": "Point", "coordinates": [2.3976046, 6.3565776]}, "properties": {"category": "restaurant", "name": "Le Resto"}}, {"type": "Feature", "geometry": {"type": "Point", "coordinates": [2.3964703, 6.3565921]}, "properties": {"category": "cafe", "name": "Planète Café"}}, {"type": "Feature", "geometry": {"type": "Point", "coordinates": [2.3930514, 6.3566525]}, "properties": {"category": "restaurant", "name": "Royal Garden"}}, {"type": "Feature", "geometry": {"type": "Point", "coordinates": [2.3902505, 6.3568253]}, "properties": {"category": "clinic", "name": "Sêzo"}}, {"type": "Feature", "geometry": {"type": "Point", "coordinates": [2.3926781, 6.3570837]}, "properties": {"category": "restaurant", "name": "le Carré"}}, {"type": "Feature", "geometry": {"type": "Point", "coordinates": [2.3642201, 6.3920898]}, "properties": {"category": "hotel", "name": "ZC HOTEL"}}, {"type": "Feature", "geometry": {"type": "Point", "coordinates": [2.3642337, 6.3919128]}, "properties": {"category": "bank", "name": "CLCAM-COTONOU"}}, {"type": "Feature", "geometry": {"type": "Point", "coordinates": [2.3643636, 6.3916967]}, "properties": {"category": "fast_food", "name": "cafeteriat"}}, {"type": "Feature", "geometry": {"type": "Point", "coordinates": [2.4148976, 6.37721]}, "properties": {"category": "school", "name": "CEG Sainte Rita"}}, {"type": "Feature", "geometry": {"type": "Point", "coordinates": [2.3952441, 6.3677333]}, "properties": {"category": "school", "name": ""}}, {"type": "Feature", "geometry": {"type": "Point", "coordinates": [2.272704, 6.7918939]}, "properties": {"category": "pharmacy", "name": ""}}, {"type": "Feature", "geometry": {"type": "Point", "coordinates": [2.3130315, 6.3884212]}, "properties": {"category": "hotel", "name": "Liberty Hotel"}}, {"type": "Feature", "geometry": {"type": "Point", "coordinates": [2.3976738, 6.3611624]}, "properties": {"category": "pharmacy", "name": "Pharmacie Cadjehoun"}}, {"type": "Feature", "geometry": {"type": "Point", "coordinates": [2.3977747, 6.3610305]}, "properties": {"category": "bank", "name": "Ecobank"}}, {"type": "Feature", "geometry": {"type": "Point", "coordinates": [2.3998069, 6.3564963]}, "properties": {"category": "fuel", "name": ""}}, {"type": "Feature", "geometry": {"type": "Point", "coordinates": [2.3740547, 6.3851999]}, "properties": {"category": "pharmacy", "name": "Pharmacie Oladjouan"}}, {"type": "Feature", "geometry": {"type": "Point", "coordinates": [2.3828492, 6.3772366]}, "properties": {"category": "clinic", "name": "Centre de Santé de Houenoussou"}}, {"type": "Feature", "geometry": {"type": "Point", "coordinates": [2.4130933, 6.3760319]}, "properties": {"category": "townhall", "name": "Mairie de Cotonou"}}, {"type": "Feature", "geometry": {"type": "Point", "coordinates": [2.3907771, 6.3761661]}, "properties": {"category": "fuel", "name": "Bénin Petro"}}, {"type": "Feature", "geometry": {"type": "Point", "coordinates": [2.3763106, 6.3840254]}, "properties": {"category": "college", "name": "École Supérieure de Management"}}, {"type": "Feature", "geometry": {"type": "Point", "coordinates": [2.400884, 6.3642487]}, "properties": {"category": "supermarket", "name": "Franc - Prix"}}, {"type": "Feature", "geometry": {"type": "Point", "coordinates": [2.3983554, 6.3627942]}, "properties": {"category": "bank", "name": "Bank of Africa"}}, {"type": "Feature", "geometry": {"type": "Point", "coordinates": [2.4096947, 6.3794094]}, "properties": {"category": "fuel", "name": "MRS"}}, {"type": "Feature", "geometry": {"type": "Point", "coordinates": [2.4113394, 6.3779336]}, "properties": {"category": "post_office", "name": "Sainte Rita"}}, {"type": "Feature", "geometry": {"type": "Point", "coordinates": [2.4083865, 6.3784562]}, "properties": {"category": "hotel", "name": "La Résidence de l'Étoile"}}, {"type": "Feature", "geometry": {"type": "Point", "coordinates": [2.409034, 6.370578]}, "properties": {"category": "bank", "name": "Banque Atlantique"}}, {"type": "Feature", "geometry": {"type": "Point", "coordinates": [2.4072685, 6.3693238]}, "properties": {"category": "bank", "name": "Banque Internationale d'industrie et de Commerce"}}, {"type": "Feature", "geometry": {"type": "Point", "coordinates": [2.404213, 6.3667844]}, "properties": {"category": "bank", "name": "BGFI Bank"}}, {"type": "Feature", "geometry": {"type": "Point", "coordinates": [2.3679636, 6.3879041]}, "properties": {"category": "fuel", "name": "Sonacop"}}, {"type": "Feature", "geometry": {"type": "Point", "coordinates": [2.3496205, 6.3923014]}, "properties": {"category": "pharmacy", "name": "Pharmacie Sainte Adèle"}}, {"type": "Feature", "geometry": {"type": "Point", "coordinates": [2.3801784, 6.3786331]}, "properties": {"category": "fuel", "name": "Atlantic Oil"}}, {"type": "Feature", "geometry": {"type": "Point", "coordinates": [2.412034, 6.376655]}, "properties": {"category": "supermarket", "name": "Africagel"}}, {"type": "Feature", "geometry": {"type": "Point", "coordinates": [2.3994541, 6.3570771]}, "properties": {"category": "restaurant", "name": "Karim 24"}}, {"type": "Feature", "geometry": {"type": "Point", "coordinates": [2.4270046, 6.3702931]}, "properties": {"category": "fuel", "name": "Sonacop"}}, {"type": "Feature", "geometry": {"type": "Point", "coordinates": [2.4325299, 6.3689049]}, "properties": {"category": "mall", "name": "City Centre"}}, {"type": "Feature", "geometry": {"type": "Point", "coordinates": [2.4417953, 6.3774115]}, "properties": {"category": "pharmacy", "name": "Pharmacie Midombo"}}, {"type": "Feature", "geometry": {"type": "Point", "coordinates": [2.4501372, 6.3773535]}, "properties": {"category": "police", "name": "Direction de la Police Municipale"}}, {"type": "Feature", "geometry": {"type": "Point", "coordinates": [2.4382761, 6.3523313]}, "properties": {"category": "restaurant", "name": "Maquis Le Moringa"}}, {"type": "Feature", "geometry": {"type": "Point", "coordinates": [2.4113361, 6.3776271]}, "properties": {"category": "pharmacy", "name": "Pharmacie L'Éternité"}}, {"type": "Feature", "geometry": {"type": "Point", "coordinates": [2.4303541, 6.3671017]}, "properties": {"category": "bank", "name": "Société Générale"}}, {"type": "Feature", "geometry": {"type": "Point", "coordinates": [2.4487, 6.3770007]}, "properties": {"category": "pharmacy", "name": "Pharmacie Adetona"}}, {"type": "Feature", "geometry": {"type": "Point", "coordinates": [2.4375223, 6.3559461]}, "properties": {"category": "supermarket", "name": "Supermarché Sincère"}}, {"type": "Feature", "geometry": {"type": "Point", "coordinates": [2.4379155, 6.3525143]}, "properties": {"category": "restaurant", "name": "Maquis Chez Léa"}}, {"type": "Feature", "geometry": {"type": "Point", "coordinates": [2.3881976, 6.3904833]}, "properties": {"category": "fuel", "name": "JNP"}}, {"type": "Feature", "geometry": {"type": "Point", "coordinates": [2.3927101, 6.3909769]}, "properties": {"category": "convenience", "name": "Mini Market Elikia"}}, {"type": "Feature", "geometry": {"type": "Point", "coordinates": [2.4001747, 6.3904219]}, "properties": {"category": "bank", "name": "Vital Finances"}}, {"type": "Feature", "geometry": {"type": "Point", "coordinates": [2.4071874, 6.3828434]}, "properties": {"category": "bank", "name": "Caisse Locale de Crédit Agricole Mutuel"}}, {"type": "Feature", "geometry": {"type": "Point", "coordinates": [2.4470044, 6.3770001]}, "properties": {"category": "bank", "name": "Banque Atlantique"}}, {"type": "Feature", "geometry": {"type": "Point", "coordinates": [2.437356, 6.3558274]}, "properties": {"category": "restaurant", "name": "Dody's"}}, {"type": "Feature", "geometry": {"type": "Point", "coordinates": [2.4364849, 6.3531316]}, "properties": {"category": "townhall", "name": "Direction des Services Techniques"}}, {"type": "Feature", "geometry": {"type": "Point", "coordinates": [2.436108, 6.3530436]}, "properties": {"category": "post_office", "name": "Centre de Courrier Rapide"}}, {"type": "Feature", "geometry": {"type": "Point", "coordinates": [2.4220937, 6.3613121]}, "properties": {"category": "fuel", "name": "Station Château d'Eau Sonacop"}}, {"type": "Feature", "geometry": {"type": "Point", "coordinates": [2.4094083, 6.3723131]}, "properties": {"category": "bank", "name": "Société Générale"}}, {"type": "Feature", "geometry": {"type": "Point", "coordinates": [2.4161379, 6.3710762]}, "properties": {"category": "atm", "name": "Bank of Africa"}}, {"type": "Feature", "geometry": {"type": "Point", "coordinates": [2.4175736, 6.355879]}, "properties": {"category": "restaurant", "name": "Jet Set"}}, {"type": "Feature", "geometry": {"type": "Point", "coordinates": [2.4258699, 6.3574935]}, "properties": {"category": "pharmacy", "name": "Pharmacie de la Mosquée Centrale"}}, {"type": "Feature", "geometry": {"type": "Point", "coordinates": [2.4108871, 6.3702419]}, "properties": {"category": "bank", "name": "Bank of Africa"}}, {"type": "Feature", "geometry": {"type": "Point", "coordinates": [2.405695, 6.3745407]}, "properties": {"category": "bank", "name": "Ecobank"}}, {"type": "Feature", "geometry": {"type": "Point", "coordinates": [2.4093551, 6.3707657]}, "properties": {"category": "cafe", "name": "Café Brayan"}}, {"type": "Feature", "geometry": {"type": "Point", "coordinates": [2.4179211, 6.3571589]}, "properties": {"category": "fuel", "name": "Primogaz"}}, {"type": "Feature", "geometry": {"type": "Point", "coordinates": [2.4360977, 6.3572593]}, "properties": {"category": "hotel", "name": "Acropole"}}, {"type": "Feature", "geometry": {"type": "Point", "coordinates": [2.4051944, 6.3757063]}, "properties": {"category": "pharmacy", "name": "Pharmacie Agontinkon"}}, {"type": "Feature", "geometry": {"type": "Point", "coordinates": [2.3481734, 6.3863939]}, "properties": {"category": "restaurant", "name": "Bar Maquis Parc des Princes"}}, {"type": "Feature", "geometry": {"type": "Point", "coordinates": [2.3449895, 6.3833817]}, "properties": {"category": "fuel", "name": "MRS"}}, {"type": "Feature", "geometry": {"type": "Point", "coordinates": [2.3573526, 6.3889561]}, "properties": {"category": "pharmacy", "name": "Medipharm"}}, {"type": "Feature", "geometry": {"type": "Point", "coordinates": [2.3260043, 6.3864192]}, "properties": {"category": "pharmacy", "name": "Pharmacie Godomey PK14"}}, {"type": "Feature", "geometry": {"type": "Point", "coordinates": [2.3351096, 6.3833491]}, "properties": {"category": "pharmacy", "name": "Pharmacie Espace Santé"}}, {"type": "Feature", "geometry": {"type": "Point", "coordinates": [2.4281727, 6.3532046]}, "properties": {"category": "bank", "name": "Caisse Autonome D'amortissement"}}, {"type": "Feature", "geometry": {"type": "Point", "coordinates": [2.4008732, 6.3560033]}, "properties": {"category": "bank", "name": "UBA"}}, {"type": "Feature", "geometry": {"type": "Point", "coordinates": [2.3971414, 6.3626751]}, "properties": {"category": "supermarket", "name": "Supermarché Mont Sinaï"}}, {"type": "Feature", "geometry": {"type": "Point", "coordinates": [2.3744992, 6.3866273]}, "properties": {"category": "hotel", "name": "Casta Hotel"}}, {"type": "Feature", "geometry": {"type": "Point", "coordinates": [2.3728347, 6.3895424]}, "properties": {"category": "clinic", "name": "Clinique Sainte Marie"}}, {"type": "Feature", "geometry": {"type": "Point", "coordinates": [2.3674134, 6.3920613]}, "properties": {"category": "convenience", "name": "La Fontaine Blanche"}}, {"type": "Feature", "geometry": {"type": "Point", "coordinates": [2.3407095, 6.3818401]}, "properties": {"category": "school", "name": "Collège d’Enseignement Général Godomey"}}, {"type": "Feature", "geometry": {"type": "Point", "coordinates": [2.318936, 6.3881441]}, "properties": {"category": "college", "name": "Collège La Plénitude"}}, {"type": "Feature", "geometry": {"type": "Point", "coordinates": [2.4367883, 6.3524588]}, "properties": {"category": "courthouse", "name": "Cour Suprême"}}, {"type": "Feature", "geometry": {"type": "Point", "coordinates": [2.4349561, 6.3538189]}, "properties": {"category": "police", "name": "Direction Générale de la Police Republicaine"}}, {"type": "Feature", "geometry": {"type": "Point", "coordinates": [2.3797211, 6.3808052]}, "properties": {"category": "clinic", "name": "Polyclinique de L'amitié - Le Bon Samaritain"}}, {"type": "Feature", "geometry": {"type": "Point", "coordinates": [2.3750579, 6.3880813]}, "properties": {"category": "fuel", "name": "JNP"}}, {"type": "Feature", "geometry": {"type": "Point", "coordinates": [2.3433253, 6.3931219]}, "properties": {"category": "school", "name": "Complexe Scolaire Fils Le Père"}}, {"type": "Feature", "geometry": {"type": "Point", "coordinates": [2.3406643, 6.3813602]}, "properties": {"category": "school", "name": "Complexe Scolaire La Refondation II"}}, {"type": "Feature", "geometry": {"type": "Point", "coordinates": [2.3423218, 6.3906018]}, "properties": {"category": "fast_food", "name": "Cafétéria Chez Diallo"}}, {"type": "Feature", "geometry": {"type": "Point", "coordinates": [2.342234, 6.3845459]}, "properties": {"category": "school", "name": "Complexe Scolaire Mine d'Or"}}, {"type": "Feature", "geometry": {"type": "Point", "coordinates": [2.4064391, 6.3603389]}, "properties": {"category": "post_office", "name": "FESTIVAL SEGAN"}}, {"type": "Feature", "geometry": {"type": "Point", "coordinates": [2.4364317, 6.3540136]}, "properties": {"category": "hotel", "name": "Myosotis"}}, {"type": "Feature", "geometry": {"type": "Point", "coordinates": [2.4275645, 6.3571709]}, "properties": {"category": "bank", "name": "Wari"}}, {"type": "Feature", "geometry": {"type": "Point", "coordinates": [2.4364216, 6.3533972]}, "properties": {"category": "courthouse", "name": "Cour Suprême"}}, {"type": "Feature", "geometry": {"type": "Point", "coordinates": [2.3978123, 6.3617933]}, "properties": {"category": "supermarket", "name": "Alimentation la Gastro"}}, {"type": "Feature", "geometry": {"type": "Point", "coordinates": [2.3979284, 6.3618592]}, "properties": {"category": "place_of_worship", "name": "MOSQUÉE CENTRALE DE CADJEHOUN"}}, {"type": "Feature", "geometry": {"type": "Point", "coordinates": [2.3000322, 6.3879789]}, "properties": {"category": "place_of_worship", "name": "Église Pentecôte de la Foi"}}, {"type": "Feature", "geometry": {"type": "Point", "coordinates": [2.3009647, 6.3892696]}, "properties": {"category": "cafe", "name": "Cafétéria Chez Mouhamed"}}, {"type": "Feature", "geometry": {"type": "Point", "coordinates": [2.2995307, 6.3883931]}, "properties": {"category": "supermarket", "name": "Alimentation Chez DD"}}, {"type": "Feature", "geometry": {"type": "Point", "coordinates": [2.3726607, 6.3809501]}, "properties": {"category": "pharmacy", "name": "Les Pylônes"}}, {"type": "Feature", "geometry": {"type": "Point", "coordinates": [2.3722777, 6.3808495]}, "properties": {"category": "cafe", "name": "CAFE-BAR CHEZ SENA"}}, {"type": "Feature", "geometry": {"type": "Point", "coordinates": [2.3419419, 6.3992723]}, "properties": {"category": "bank", "name": "Ecobank"}}, {"type": "Feature", "geometry": {"type": "Point", "coordinates": [2.3567588, 6.4577148]}, "properties": {"category": "bank", "name": "Diamond Banque"}}, {"type": "Feature", "geometry": {"type": "Point", "coordinates": [2.3527184, 6.4558044]}, "properties": {"category": "place_of_worship", "name": "Église Protestante Baptiste d'Abomey Calavi"}}, {"type": "Feature", "geometry": {"type": "Point", "coordinates": [2.2948253, 6.3877059]}, "properties": {"category": "school", "name": "La miséricorde"}}, {"type": "Feature", "geometry": {"type": "Point", "coordinates": [2.2943999, 6.3912026]}, "properties": {"category": "supermarket", "name": "Prix Tokpa"}}, {"type": "Feature", "geometry": {"type": "Point", "coordinates": [2.3475207, 6.3889192]}, "properties": {"category": "college", "name": "Collège Catholique Père Aupiere"}}, {"type": "Feature", "geometry": {"type": "Point", "coordinates": [2.3541579, 6.443903]}, "properties": {"category": "college", "name": "ISM Anonaï"}}, {"type": "Feature", "geometry": {"type": "Point", "coordinates": [2.3519159, 6.4493809]}, "properties": {"category": "restaurant", "name": "Restaurant La Victoire"}}, {"type": "Feature", "geometry": {"type": "Point", "coordinates": [2.2950353, 6.3877306]}, "properties": {"category": "fast_food", "name": "Bleu Blanc Bleu"}}, {"type": "Feature", "geometry": {"type": "Point", "coordinates": [2.3909944, 6.3667895]}, "properties": {"category": "clinic", "name": "Clinique Houeyiho"}}, {"type": "Feature", "geometry": {"type": "Point", "coordinates": [2.3423576, 6.3909657]}, "properties": {"category": "clinic", "name": "Polyclinique Biosso"}}, {"type": "Feature", "geometry": {"type": "Point", "coordinates": [2.3528696, 6.4382704]}, "properties": {"category": "bank", "name": "BOA"}}, {"type": "Feature", "geometry": {"type": "Point", "coordinates": [2.3554361, 6.4553439]}, "properties": {"category": "school", "name": "Collège Jean Michel le Faucon"}}, {"type": "Feature", "geometry": {"type": "Point", "coordinates": [2.301493, 6.3889228]}, "properties": {"category": "school", "name": "École Primaire Publique de Cocotomey"}}, {"type": "Feature", "geometry": {"type": "Point", "coordinates": [2.311062, 6.3893348]}, "properties": {"category": "atm", "name": "Ecobank"}}, {"type": "Feature", "geometry": {"type": "Point", "coordinates": [2.3111947, 6.3894163]}, "properties": {"category": "fuel", "name": "MRS"}}, {"type": "Feature", "geometry": {"type": "Point", "coordinates": [2.3106638, 6.389341]}, "properties": {"category": "pharmacy", "name": "Pharmacie Deo-Gratias"}}, {"type": "Feature", "geometry": {"type": "Point", "coordinates": [2.3212156, 6.3890114]}, "properties": {"category": "place_of_worship", "name": "Seminaire Jean Eudes"}}, {"type": "Feature", "geometry": {"type": "Point", "coordinates": [2.316851, 6.3889021]}, "properties": {"category": "fuel", "name": "Anor Petrolum"}}, {"type": "Feature", "geometry": {"type": "Point", "coordinates": [2.3208831, 6.392918]}, "properties": {"category": "school", "name": "Compexe Scolaire Le Spiritor d'Atrokpocodji"}}, {"type": "Feature", "geometry": {"type": "Point", "coordinates": [2.3163601, 6.3938762]}, "properties": {"category": "hotel", "name": "GG"}}, {"type": "Feature", "geometry": {"type": "Point", "coordinates": [2.3202163, 6.3965084]}, "properties": {"category": "school", "name": "Compexe Scolaire Ste Lucie-Elisé"}}, {"type": "Feature", "geometry": {"type": "Point", "coordinates": [2.3166747, 6.3944307]}, "properties": {"category": "place_of_worship", "name": "Armonie Des Anges"}}, {"type": "Feature", "geometry": {"type": "Point", "coordinates": [2.3208612, 6.3936417]}, "properties": {"category": "bar", "name": "Chez Colombo"}}, {"type": "Feature", "geometry": {"type": "Point", "coordinates": [2.3070583, 6.3927981]}, "properties": {"category": "bar", "name": "Le Destino Ahouadjo"}}, {"type": "Feature", "geometry": {"type": "Point", "coordinates": [2.3095732, 6.3939186]}, "properties": {"category": "place_of_worship", "name": "Ministere international pour le reveil des nations"}}, {"type": "Feature", "geometry": {"type": "Point", "coordinates": [2.362889, 6.5107945]}, "properties": {"category": "bank", "name": "CLCAM d'Akassato"}}, {"type": "Feature", "geometry": {"type": "Point", "coordinates": [2.4295213, 6.356927]}, "properties": {"category": "restaurant", "name": "CHARLY 2001"}}, {"type": "Feature", "geometry": {"type": "Point", "coordinates": [2.436847, 6.3587521]}, "properties": {"category": "supermarket", "name": "Edeline"}}, {"type": "Feature", "geometry": {"type": "Point", "coordinates": [2.4286656, 6.3565709]}, "properties": {"category": "pharmacy", "name": "Les Cheminots"}}, {"type": "Feature", "geometry": {"type": "Point", "coordinates": [2.4289403, 6.3563504]}, "properties": {"category": "fuel", "name": "Station Ceminots-Barrières"}}, {"type": "Feature", "geometry": {"type": "Point", "coordinates": [2.3591585, 6.391329]}, "properties": {"category": "school", "name": "Complexe scolaire la Paloma"}}, {"type": "Feature", "geometry": {"type": "Point", "coordinates": [2.365618, 6.5134441]}, "properties": {"category": "school", "name": "CS la patience"}}, {"type": "Feature", "geometry": {"type": "Point", "coordinates": [2.3658578, 6.3922258]}, "properties": {"category": "fast_food", "name": "Hosanna"}}, {"type": "Feature", "geometry": {"type": "Point", "coordinates": [2.4428678, 6.3694197]}, "properties": {"category": "restaurant", "name": "MAQUIS SILOE"}}, {"type": "Feature", "geometry": {"type": "Point", "coordinates": [2.3999588, 6.3639837]}, "properties": {"category": "school", "name": "ECOLE SUPÉRIEURE DES TECHNOLOGIES AVACEES ET DE MANAGEMENT"}}, {"type": "Feature", "geometry": {"type": "Point", "coordinates": [2.3997143, 6.3633084]}, "properties": {"category": "restaurant", "name": "Maquis Chez Georgia"}}, {"type": "Feature", "geometry": {"type": "Point", "coordinates": [2.3595964, 6.3920915]}, "properties": {"category": "cafe", "name": ""}}, {"type": "Feature", "geometry": {"type": "Point", "coordinates": [2.3271523, 6.3941902]}, "properties": {"category": "marketplace", "name": "Marché d’Atrokpokodji"}}, {"type": "Feature", "geometry": {"type": "Point", "coordinates": [2.3269886, 6.3869862]}, "properties": {"category": "fuel", "name": ""}}, {"type": "Feature", "geometry": {"type": "Point", "coordinates": [2.3892536, 6.464096]}, "properties": {"category": "hotel", "name": ""}}, {"type": "Feature", "geometry": {"type": "Point", "coordinates": [2.3910733, 6.4733783]}, "properties": {"category": "hotel", "name": "Hôtel Germain"}}, {"type": "Feature", "geometry": {"type": "Point", "coordinates": [2.390895, 6.4707867]}, "properties": {"category": "place_of_worship", "name": ""}}, {"type": "Feature", "geometry": {"type": "Point", "coordinates": [2.3266279, 6.3872494]}, "properties": {"category": "school", "name": "Complexe scolaire bilingue « Les papillons de Sainte Aloïse »"}}, {"type": "Feature", "geometry": {"type": "Point", "coordinates": [2.3180598, 6.3892108]}, "properties": {"category": "school", "name": "Complexe scolaire « Maria Gracia »"}}, {"type": "Feature", "geometry": {"type": "Point", "coordinates": [2.3268122, 6.3884526]}, "properties": {"category": "place_of_worship", "name": ""}}, {"type": "Feature", "geometry": {"type": "Point", "coordinates": [2.3590958, 6.3898897]}, "properties": {"category": "cafe", "name": ""}}, {"type": "Feature", "geometry": {"type": "Point", "coordinates": [2.3593327, 6.3893549]}, "properties": {"category": "place_of_worship", "name": "PAROISSE OKPE OLUWA"}}, {"type": "Feature", "geometry": {"type": "Point", "coordinates": [2.4548273, 6.3676537]}, "properties": {"category": "pharmacy", "name": "Pharmacie Le remède Sodjeatime"}}, {"type": "Feature", "geometry": {"type": "Point", "coordinates": [2.4954557, 6.3687075]}, "properties": {"category": "bank", "name": "Bank of Africa"}}, {"type": "Feature", "geometry": {"type": "Point", "coordinates": [2.4945655, 6.3694035]}, "properties": {"category": "bar", "name": ""}}, {"type": "Feature", "geometry": {"type": "Point", "coordinates": [2.4520849, 6.3719075]}, "properties": {"category": "fuel", "name": "JNP"}}, {"type": "Feature", "geometry": {"type": "Point", "coordinates": [2.471274, 6.3673418]}, "properties": {"category": "fuel", "name": "MRS"}}, {"type": "Feature", "geometry": {"type": "Point", "coordinates": [2.47679, 6.3684549]}, "properties": {"category": "bank", "name": "Ecobank"}}, {"type": "Feature", "geometry": {"type": "Point", "coordinates": [2.4153944, 6.3690873]}, "properties": {"category": "pharmacy", "name": "Pharmacie Alafia"}}, {"type": "Feature", "geometry": {"type": "Point", "coordinates": [2.4373026, 6.3566599]}, "properties": {"category": "school", "name": "Complexe scolaire catholique Père Planque"}}, {"type": "Feature", "geometry": {"type": "Point", "coordinates": [2.4372869, 6.3562438]}, "properties": {"category": "bank", "name": "Diamond Bank S.A."}}, {"type": "Feature", "geometry": {"type": "Point", "coordinates": [2.4319644, 6.3537747]}, "properties": {"category": "bank", "name": "UBA"}}, {"type": "Feature", "geometry": {"type": "Point", "coordinates": [2.4135176, 6.3671524]}, "properties": {"category": "school", "name": "Collège La Flèche"}}, {"type": "Feature", "geometry": {"type": "Point", "coordinates": [2.432607, 6.353291]}, "properties": {"category": "courthouse", "name": "COUR CONSTITUTIONNELLE DU BENIN"}}, {"type": "Feature", "geometry": {"type": "Point", "coordinates": [2.4138395, 6.3676167]}, "properties": {"category": "cafe", "name": "Cafeteria Carrefour Cossi"}}, {"type": "Feature", "geometry": {"type": "Point", "coordinates": [2.3271842, 6.3867785]}, "properties": {"category": "cafe", "name": "Cafeteria bar"}}, {"type": "Feature", "geometry": {"type": "Point", "coordinates": [2.3270916, 6.3874891]}, "properties": {"category": "school", "name": "Chèche garderie Les petits chouchous"}}, {"type": "Feature", "geometry": {"type": "Point", "coordinates": [2.4136825, 6.3625655]}, "properties": {"category": "pharmacy", "name": "Pharmacie du Rond-Point"}}, {"type": "Feature", "geometry": {"type": "Point", "coordinates": [2.3285021, 6.3851306]}, "properties": {"category": "school", "name": "ComplexeScolaire protestant"}}, {"type": "Feature", "geometry": {"type": "Point", "coordinates": [2.3265832, 6.3861353]}, "properties": {"category": "bank", "name": "Institution de Microfinance Alidé"}}, {"type": "Feature", "geometry": {"type": "Point", "coordinates": [2.3260228, 6.3847445]}, "properties": {"category": "school", "name": "Complexe scolaire octave-Denise"}}, {"type": "Feature", "geometry": {"type": "Point", "coordinates": [2.3230596, 6.3851358]}, "properties": {"category": "bar", "name": "Bar doudou plus"}}, {"type": "Feature", "geometry": {"type": "Point", "coordinates": [2.3234272, 6.3859259]}, "properties": {"category": "school", "name": "Complexe scolaire le sceau de l'éternel"}}, {"type": "Feature", "geometry": {"type": "Point", "coordinates": [2.3295403, 6.3849257]}, "properties": {"category": "police", "name": "Brigade de gendarmerie de Godomey"}}, {"type": "Feature", "geometry": {"type": "Point", "coordinates": [2.3178845, 6.3866715]}, "properties": {"category": "school", "name": "Ecole primaire la Plénitude"}}, {"type": "Feature", "geometry": {"type": "Point", "coordinates": [2.3178703, 6.3883472]}, "properties": {"category": "pharmacy", "name": "Le Président"}}, {"type": "Feature", "geometry": {"type": "Point", "coordinates": [2.3181548, 6.3860131]}, "properties": {"category": "bar", "name": "café bar maquis restauration au bout des doigts"}}, {"type": "Feature", "geometry": {"type": "Point", "coordinates": [2.3103058, 6.4528321]}, "properties": {"category": "school", "name": "Complexe scolaire de Tokan groupes A et B"}}, {"type": "Feature", "geometry": {"type": "Point", "coordinates": [2.3160299, 6.4535662]}, "properties": {"category": "place_of_worship", "name": "Paroisse Saint Pierre de Tokan"}}, {"type": "Feature", "geometry": {"type": "Point", "coordinates": [2.3170308, 6.4581063]}, "properties": {"category": "marketplace", "name": "Marché de Tokan"}}, {"type": "Feature", "geometry": {"type": "Point", "coordinates": [2.3151404, 6.449099]}, "properties": {"category": "place_of_worship", "name": "Mosquée de Tokan"}}, {"type": "Feature", "geometry": {"type": "Point", "coordinates": [2.3468836, 6.4446908]}, "properties": {"category": "place_of_worship", "name": "Ste Josephine Bakhita"}}, {"type": "Feature", "geometry": {"type": "Point", "coordinates": [2.3160513, 6.4460077]}, "properties": {"category": "school", "name": "Complexe scolaire de la bergerie de Dieu (CSBD)"}}, {"type": "Feature", "geometry": {"type": "Point", "coordinates": [2.3516108, 6.4671279]}, "properties": {"category": "fire_station", "name": "Centre de sécours d’Abomey-Calavi"}}, {"type": "Feature", "geometry": {"type": "Point", "coordinates": [2.346663, 6.4425911]}, "properties": {"category": "school", "name": "Collège catholique Pierre Joseph de Clorivière"}}, {"type": "Feature", "geometry": {"type": "Point", "coordinates": [2.3536167, 6.4437296]}, "properties": {"category": "fuel", "name": "Station service MRS"}}, {"type": "Feature", "geometry": {"type": "Point", "coordinates": [2.4639094, 6.367354]}, "properties": {"category": "post_office", "name": "Bureau de poste Cotonou PK 3.5"}}, {"type": "Feature", "geometry": {"type": "Point", "coordinates": [2.350731, 6.4305367]}, "properties": {"category": "restaurant", "name": "Le Patriarche"}}, {"type": "Feature", "geometry": {"type": "Point", "coordinates": [2.3443859, 6.4343656]}, "properties": {"category": "clinic", "name": "Clinique pédiatrique d’Abomey-Calavi"}}, {"type": "Feature", "geometry": {"type": "Point", "coordinates": [2.3465287, 6.430544]}, "properties": {"category": "bar", "name": "Le Maracana"}}, {"type": "Feature", "geometry": {"type": "Point", "coordinates": [2.3507528, 6.4305304]}, "properties": {"category": "fuel", "name": "Oryx Energies"}}, {"type": "Feature", "geometry": {"type": "Point", "coordinates": [2.3567635, 6.453003]}, "properties": {"category": "cafe", "name": "Cafétariat-Bar « Chez Tanti Gisèle »"}}, {"type": "Feature", "geometry": {"type": "Point", "coordinates": [2.3565049, 6.4523618]}, "properties": {"category": "fuel", "name": "Station Sonacop"}}, {"type": "Feature", "geometry": {"type": "Point", "coordinates": [2.4651303, 6.3674559]}, "properties": {"category": "supermarket", "name": "Super U Akpakpa"}}, {"type": "Feature", "geometry": {"type": "Point", "coordinates": [2.3484847, 6.4251864]}, "properties": {"category": "pharmacy", "name": "Pharmacie du campus U.A.C"}}, {"type": "Feature", "geometry": {"type": "Point", "coordinates": [2.3463126, 6.4178773]}, "properties": {"category": "fuel", "name": "Station MRS"}}, {"type": "Feature", "geometry": {"type": "Point", "coordinates": [2.3547304, 6.4467135]}, "properties": {"category": "pharmacy", "name": "Pharmacie du Lac"}}, {"type": "Feature", "geometry": {"type": "Point", "coordinates": [2.3487362, 6.4404159]}, "properties": {"category": "pharmacy", "name": "Pharmacie SOS Santé"}}, {"type": "Feature", "geometry": {"type": "Point", "coordinates": [2.33848, 6.4652134]}, "properties": {"category": "pharmacy", "name": "Pharmacie Zoca"}}, {"type": "Feature", "geometry": {"type": "Point", "coordinates": [2.3010395, 6.4258814]}, "properties": {"category": "place_of_worship", "name": "Église catholique Notre Dame de Toutes Grâces"}}, {"type": "Feature", "geometry": {"type": "Point", "coordinates": [2.3497055, 6.4326386]}, "properties": {"category": "clinic", "name": "Clinique centrale de Calavi"}}, {"type": "Feature", "geometry": {"type": "Point", "coordinates": [2.3911002, 6.3524855]}, "properties": {"category": "hotel", "name": "HOYEL LE PAQUEBOT"}}, {"type": "Feature", "geometry": {"type": "Point", "coordinates": [2.3913817, 6.3525099]}, "properties": {"category": "fast_food", "name": "Le Bâbord"}}, {"type": "Feature", "geometry": {"type": "Point", "coordinates": [2.3040236, 6.457779]}, "properties": {"category": "school", "name": "Complexe scolaire de Togba"}}, {"type": "Feature", "geometry": {"type": "Point", "coordinates": [2.3048322, 6.4406184]}, "properties": {"category": "school", "name": "École primaire publique de Houeto"}}, {"type": "Feature", "geometry": {"type": "Point", "coordinates": [2.3051569, 6.4603704]}, "properties": {"category": "place_of_worship", "name": "Église catholique Notre-Dame d'Assomption"}}, {"type": "Feature", "geometry": {"type": "Point", "coordinates": [2.3084975, 6.4848865]}, "properties": {"category": "school", "name": "COMPLEXE SCOLAIRE OUEGA-AGUE"}}, {"type": "Feature", "geometry": {"type": "Point", "coordinates": [2.3092075, 6.488232]}, "properties": {"category": "place_of_worship", "name": "Paroisse Saint Jean Apôtre de Ouega"}}, {"type": "Feature", "geometry": {"type": "Point", "coordinates": [2.3073405, 6.5050002]}, "properties": {"category": "school", "name": "ECOLE PRIMAIRE PUBLIQUE DE DRABO"}}, {"type": "Feature", "geometry": {"type": "Point", "coordinates": [2.3071512, 6.4707828]}, "properties": {"category": "school", "name": "École primaire publique Ouega-Togba"}}, {"type": "Feature", "geometry": {"type": "Point", "coordinates": [2.303379, 6.4403082]}, "properties": {"category": "place_of_worship", "name": "Église Catholique Saint Michel de Houeto"}}, {"type": "Feature", "geometry": {"type": "Point", "coordinates": [2.3034129, 6.4332781]}, "properties": {"category": "college", "name": "Collège d’enseignement général Houeto"}}, {"type": "Feature", "geometry": {"type": "Point", "coordinates": [2.3047749, 6.4241557]}, "properties": {"category": "school", "name": "École Primaire Publique de Maria-Gléta"}}, {"type": "Feature", "geometry": {"type": "Point", "coordinates": [2.3151972, 6.4680737]}, "properties": {"category": "school", "name": "École Primaire Publique d’Ahoussougbeta"}}, {"type": "Feature", "geometry": {"type": "Point", "coordinates": [2.3342247, 6.4329795]}, "properties": {"category": "fuel", "name": "Oryx Energies"}}, {"type": "Feature", "geometry": {"type": "Point", "coordinates": [2.3635849, 6.379825]}, "properties": {"category": "clinic", "name": "Polyclinique Saint Pierre"}}, {"type": "Feature", "geometry": {"type": "Point", "coordinates": [2.3325376, 6.4134881]}, "properties": {"category": "pharmacy", "name": "Pharmacie IITA"}}, {"type": "Feature", "geometry": {"type": "Point", "coordinates": [2.3569602, 6.471151]}, "properties": {"category": "fuel", "name": "Station ADN OIL"}}, {"type": "Feature", "geometry": {"type": "Point", "coordinates": [2.356822, 6.4717582]}, "properties": {"category": "fuel", "name": "Station MRS"}}, {"type": "Feature", "geometry": {"type": "Point", "coordinates": [2.355267, 6.4733712]}, "properties": {"category": "pharmacy", "name": "Pharmacie Cité Arconville"}}, {"type": "Feature", "geometry": {"type": "Point", "coordinates": [2.3561644, 6.4577846]}, "properties": {"category": "pharmacy", "name": "Pharmacie Château d’eau"}}, {"type": "Feature", "geometry": {"type": "Point", "coordinates": [2.3341412, 6.3811327]}, "properties": {"category": "fuel", "name": "Pia Market Dèkoungbé"}}, {"type": "Feature", "geometry": {"type": "Point", "coordinates": [2.3125325, 6.4358089]}, "properties": {"category": "place_of_worship", "name": "Paroisse Sainte Thérèse d’Avila de Gankon"}}, {"type": "Feature", "geometry": {"type": "Point", "coordinates": [2.486965, 6.3737172]}, "properties": {"category": "police", "name": "Gendarmerie Agblanguandan"}}, {"type": "Feature", "geometry": {"type": "Point", "coordinates": [2.4866434, 6.375207]}, "properties": {"category": "pharmacy", "name": "Pharmacie Agblanguandan"}}, {"type": "Feature", "geometry": {"type": "Point", "coordinates": [2.2968828, 6.3887212]}, "properties": {"category": "restaurant", "name": "Maquis Bar 5 Étoiles"}}, {"type": "Feature", "geometry": {"type": "Point", "coordinates": [2.4033307, 6.3548172]}, "properties": {"category": "post_office", "name": "DHL"}}, {"type": "Feature", "geometry": {"type": "Point", "coordinates": [2.3252117, 6.4188358]}, "properties": {"category": "place_of_worship", "name": "Sainte Famille de Tankpè"}}, {"type": "Feature", "geometry": {"type": "Point", "coordinates": [2.3421319, 6.4048342]}, "properties": {"category": "bank", "name": "Société générale Bénin"}}, {"type": "Feature", "geometry": {"type": "Point", "coordinates": [2.3563334, 6.4596159]}, "properties": {"category": "bank", "name": "UBA"}}, {"type": "Feature", "geometry": {"type": "Point", "coordinates": [2.3732312, 6.3901315]}, "properties": {"category": "restaurant", "name": "Maquis Bar Chez Oly"}}, {"type": "Feature", "geometry": {"type": "Point", "coordinates": [2.3634122, 6.5123378]}, "properties": {"category": "supermarket", "name": "Africagel"}}, {"type": "Feature", "geometry": {"type": "Point", "coordinates": [2.3479157, 6.465038]}, "properties": {"category": "school", "name": "La Berceuse"}}, {"type": "Feature", "geometry": {"type": "Point", "coordinates": [2.3501901, 6.5264606]}, "properties": {"category": "place_of_worship", "name": "Paroisse Sainte Thérèse de l’Enfant-Jésus et de la Sainte Face d’Adjagbo"}}, {"type": "Feature", "geometry": {"type": "Point", "coordinates": [2.3570088, 6.4782874]}, "properties": {"category": "supermarket", "name": "Supermarché du pont"}}, {"type": "Feature", "geometry": {"type": "Point", "coordinates": [2.3983309, 6.3768667]}, "properties": {"category": "fuel", "name": ""}}, {"type": "Feature", "geometry": {"type": "Point", "coordinates": [2.4872196, 6.3676423]}, "properties": {"category": "school", "name": "Wonderful American International School of Benin"}}, {"type": "Feature", "geometry": {"type": "Point", "coordinates": [2.3636176, 6.5088189]}, "properties": {"category": "fuel", "name": "24 Jupiter pétrolium"}}, {"type": "Feature", "geometry": {"type": "Point", "coordinates": [2.3573223, 6.4815173]}, "properties": {"category": "fuel", "name": "Sylfrec Petroleum"}}, {"type": "Feature", "geometry": {"type": "Point", "coordinates": [2.3747623, 6.3608862]}, "properties": {"category": "fuel", "name": "MRS"}}, {"type": "Feature", "geometry": {"type": "Point", "coordinates": [2.3849049, 6.365241]}, "properties": {"category": "fuel", "name": "MRS"}}, {"type": "Feature", "geometry": {"type": "Point", "coordinates": [2.3499049, 6.4654798]}, "properties": {"category": "school", "name": ""}}, {"type": "Feature", "geometry": {"type": "Point", "coordinates": [2.2669511, 6.3880357]}, "properties": {"category": "pharmacy", "name": "Pharmacie Le Sycomore"}}, {"type": "Feature", "geometry": {"type": "Point", "coordinates": [2.2970471, 6.3872251]}, "properties": {"category": "fuel", "name": ""}}, {"type": "Feature", "geometry": {"type": "Point", "coordinates": [2.4682555, 6.6276997]}, "properties": {"category": "school", "name": ""}}, {"type": "Feature", "geometry": {"type": "Point", "coordinates": [2.4728689, 6.6378345]}, "properties": {"category": "school", "name": ""}}, {"type": "Feature", "geometry": {"type": "Point", "coordinates": [2.4737567, 6.6531217]}, "properties": {"category": "school", "name": ""}}, {"type": "Feature", "geometry": {"type": "Point", "coordinates": [2.4772919, 6.6575015]}, "properties": {"category": "school", "name": ""}}, {"type": "Feature", "geometry": {"type": "Point", "coordinates": [2.4685774, 6.6677969]}, "properties": {"category": "school", "name": ""}}, {"type": "Feature", "geometry": {"type": "Point", "coordinates": [2.4809531, 6.6715026]}, "properties": {"category": "school", "name": ""}}, {"type": "Feature", "geometry": {"type": "Point", "coordinates": [2.4754438, 6.6768693]}, "properties": {"category": "school", "name": ""}}, {"type": "Feature", "geometry": {"type": "Point", "coordinates": [2.4970946, 6.6685535]}, "properties": {"category": "school", "name": ""}}, {"type": "Feature", "geometry": {"type": "Point", "coordinates": [2.4916041, 6.6712389]}, "properties": {"category": "school", "name": ""}}, {"type": "Feature", "geometry": {"type": "Point", "coordinates": [2.4815351, 6.6813755]}, "properties": {"category": "school", "name": "EPP Gla"}}, {"type": "Feature", "geometry": {"type": "Point", "coordinates": [2.499758, 6.6837971]}, "properties": {"category": "school", "name": ""}}, {"type": "Feature", "geometry": {"type": "Point", "coordinates": [2.4811891, 6.6944195]}, "properties": {"category": "school", "name": ""}}, {"type": "Feature", "geometry": {"type": "Point", "coordinates": [2.4805923, 6.7089363]}, "properties": {"category": "school", "name": ""}}, {"type": "Feature", "geometry": {"type": "Point", "coordinates": [2.4838593, 6.7133449]}, "properties": {"category": "school", "name": ""}}, {"type": "Feature", "geometry": {"type": "Point", "coordinates": [2.4799808, 6.7294075]}, "properties": {"category": "school", "name": ""}}, {"type": "Feature", "geometry": {"type": "Point", "coordinates": [2.472543, 6.7498006]}, "properties": {"category": "school", "name": ""}}, {"type": "Feature", "geometry": {"type": "Point", "coordinates": [2.4886953, 6.7381924]}, "properties": {"category": "school", "name": ""}}, {"type": "Feature", "geometry": {"type": "Point", "coordinates": [2.4790983, 6.7736287]}, "properties": {"category": "school", "name": "Epp Akpadanou"}}, {"type": "Feature", "geometry": {"type": "Point", "coordinates": [2.4776205, 6.7913193]}, "properties": {"category": "school", "name": "EPP Fonly"}}, {"type": "Feature", "geometry": {"type": "Point", "coordinates": [2.3419809, 6.4060344]}, "properties": {"category": "bank", "name": "Banc of Africa"}}, {"type": "Feature", "geometry": {"type": "Point", "coordinates": [2.4367268, 6.3550509]}, "properties": {"category": "pharmacy", "name": "Pharmacie Ganhi"}}, {"type": "Feature", "geometry": {"type": "Point", "coordinates": [2.3543125, 6.4468079]}, "properties": {"category": "post_office", "name": ""}}, {"type": "Feature", "geometry": {"type": "Point", "coordinates": [2.4372581, 6.3549587]}, "properties": {"category": "supermarket", "name": "U Express Ganhi"}}, {"type": "Feature", "geometry": {"type": "Point", "coordinates": [2.4106893, 6.3711626]}, "properties": {"category": "fuel", "name": "Sonacop"}}, {"type": "Feature", "geometry": {"type": "Point", "coordinates": [2.3996469, 6.4992743]}, "properties": {"category": "place_of_worship", "name": "Paroisse Sainte Bernadette Soubirous de Sô-Ava"}}, {"type": "Feature", "geometry": {"type": "Point", "coordinates": [2.3447427, 6.4071236]}, "properties": {"category": "place_of_worship", "name": "Mosquée nahicodji"}}, {"type": "Feature", "geometry": {"type": "Point", "coordinates": [2.3442712, 6.4148248]}, "properties": {"category": "hospital", "name": "CNHU"}}, {"type": "Feature", "geometry": {"type": "Point", "coordinates": [2.4224129, 6.3702522]}, "properties": {"category": "place_of_worship", "name": ""}}, {"type": "Feature", "geometry": {"type": "Point", "coordinates": [2.4282229, 6.3696598]}, "properties": {"category": "fuel", "name": "Sonacop"}}, {"type": "Feature", "geometry": {"type": "Point", "coordinates": [2.4307022, 6.3675023]}, "properties": {"category": "bank", "name": "UBA"}}, {"type": "Feature", "geometry": {"type": "Point", "coordinates": [2.4171884, 6.3706576]}, "properties": {"category": "fuel", "name": "Sonacop"}}, {"type": "Feature", "geometry": {"type": "Point", "coordinates": [2.3434276, 6.407749]}, "properties": {"category": "cafe", "name": "Chez Yaya Yaovi Baze"}}, {"type": "Feature", "geometry": {"type": "Point", "coordinates": [2.3652818, 6.392067]}, "properties": {"category": "supermarket", "name": "MAHOUNA"}}, {"type": "Feature", "geometry": {"type": "Point", "coordinates": [2.3676065, 6.3916746]}, "properties": {"category": "place_of_worship", "name": "Paroisse Marie Auxiliatrice de Mènontin"}}, {"type": "Feature", "geometry": {"type": "Point", "coordinates": [2.3674718, 6.3914466]}, "properties": {"category": "bar", "name": "Bar Dieu est grand"}}, {"type": "Feature", "geometry": {"type": "Point", "coordinates": [2.363834, 6.39515]}, "properties": {"category": "place_of_worship", "name": "Eglise du Christianisme Céleste de Kindonou"}}, {"type": "Feature", "geometry": {"type": "Point", "coordinates": [2.3669616, 6.3926056]}, "properties": {"category": "bar", "name": "Maquis Akpédjé"}}, {"type": "Feature", "geometry": {"type": "Point", "coordinates": [2.3451206, 6.4120393]}, "properties": {"category": "restaurant", "name": "Kafui"}}, {"type": "Feature", "geometry": {"type": "Point", "coordinates": [2.3642038, 6.3923272]}, "properties": {"category": "restaurant", "name": "9232"}}, {"type": "Feature", "geometry": {"type": "Point", "coordinates": [2.3449725, 6.4053895]}, "properties": {"category": "bank", "name": "Institut de micro-finance: Alodo Alomè"}}, {"type": "Feature", "geometry": {"type": "Point", "coordinates": [2.3447621, 6.4052048]}, "properties": {"category": "school", "name": "École Primaire Publique"}}, {"type": "Feature", "geometry": {"type": "Point", "coordinates": [2.3674512, 6.391406]}, "properties": {"category": "bar", "name": "Bar le prestige"}}, {"type": "Feature", "geometry": {"type": "Point", "coordinates": [2.409172, 6.3722636]}, "properties": {"category": "restaurant", "name": "Chez Adé"}}, {"type": "Feature", "geometry": {"type": "Point", "coordinates": [2.3400919, 6.3850594]}, "properties": {"category": "school", "name": "Complexe Scolaire Ste Félicité"}}, {"type": "Feature", "geometry": {"type": "Point", "coordinates": [2.3790554, 6.3851956]}, "properties": {"category": "police", "name": "Poste de Police du Stade"}}, {"type": "Feature", "geometry": {"type": "Point", "coordinates": [2.3721156, 6.3898819]}, "properties": {"category": "restaurant", "name": "Bar Bel air"}}, {"type": "Feature", "geometry": {"type": "Point", "coordinates": [2.3623566, 6.3925582]}, "properties": {"category": "restaurant", "name": "Cesserole du sherif"}}, {"type": "Feature", "geometry": {"type": "Point", "coordinates": [2.3642686, 6.3933636]}, "properties": {"category": "convenience", "name": "Superette"}}, {"type": "Feature", "geometry": {"type": "Point", "coordinates": [2.3569921, 6.4546175]}, "properties": {"category": "bank", "name": "Orabank"}}, {"type": "Feature", "geometry": {"type": "Point", "coordinates": [2.4196937, 6.3865272]}, "properties": {"category": "bar", "name": "Le Magnum"}}, {"type": "Feature", "geometry": {"type": "Point", "coordinates": [2.3453566, 6.4130448]}, "properties": {"category": "fast_food", "name": "Chawarma Express"}}, {"type": "Feature", "geometry": {"type": "Point", "coordinates": [2.3461831, 6.415192]}, "properties": {"category": "place_of_worship", "name": "Église du christianisme celeste"}}, {"type": "Feature", "geometry": {"type": "Point", "coordinates": [2.419828, 6.386948]}, "properties": {"category": "clinic", "name": "Clinique Point E"}}, {"type": "Feature", "geometry": {"type": "Point", "coordinates": [2.4184317, 6.386205]}, "properties": {"category": "bar", "name": "Maquis Bar PLAN \"B\" ex Cellulaire"}}, {"type": "Feature", "geometry": {"type": "Point", "coordinates": [2.416183, 6.384784]}, "properties": {"category": "cafe", "name": "Café Bar Résurection"}}, {"type": "Feature", "geometry": {"type": "Point", "coordinates": [2.347004, 6.417951]}, "properties": {"category": "place_of_worship", "name": ""}}, {"type": "Feature", "geometry": {"type": "Point", "coordinates": [2.3457211, 6.4155967]}, "properties": {"category": "bar", "name": "bar Youki la douceur"}}, {"type": "Feature", "geometry": {"type": "Point", "coordinates": [2.347186, 6.417607]}, "properties": {"category": "hostel", "name": "Auberge le Miracle"}}, {"type": "Feature", "geometry": {"type": "Point", "coordinates": [2.3466309, 6.4193655]}, "properties": {"category": "cafe", "name": "Café-Bar Resto ''Chez Dadjè''"}}, {"type": "Feature", "geometry": {"type": "Point", "coordinates": [2.4303446, 6.3695053]}, "properties": {"category": "pharmacy", "name": "Pharmacie des 4 therapies"}}, {"type": "Feature", "geometry": {"type": "Point", "coordinates": [2.3260521, 6.5148758]}, "properties": {"category": "school", "name": "Saint Just"}}, {"type": "Feature", "geometry": {"type": "Point", "coordinates": [2.353311, 6.5006341]}, "properties": {"category": "school", "name": "CSP SAINT XAZIER"}}, {"type": "Feature", "geometry": {"type": "Point", "coordinates": [2.4626353, 6.3793929]}, "properties": {"category": "school", "name": "CEG SURU LERE"}}, {"type": "Feature", "geometry": {"type": "Point", "coordinates": [2.4637511, 6.3794808]}, "properties": {"category": "school", "name": "CSU Espoir 2000"}}, {"type": "Feature", "geometry": {"type": "Point", "coordinates": [2.4632254, 6.3778135]}, "properties": {"category": "school", "name": "Ecole Primaire Publique Suru Léré"}}, {"type": "Feature", "geometry": {"type": "Point", "coordinates": [2.4625521, 6.377651]}, "properties": {"category": "school", "name": "Ecole Primaire Publique Sènadé"}}, {"type": "Feature", "geometry": {"type": "Point", "coordinates": [2.4616804, 6.3775123]}, "properties": {"category": "place_of_worship", "name": "Ecole coranique Markaz CHABAB DEEN"}}, {"type": "Feature", "geometry": {"type": "Point", "coordinates": [2.4637149, 6.379946]}, "properties": {"category": "school", "name": "St Emmanuel"}}, {"type": "Feature", "geometry": {"type": "Point", "coordinates": [2.4625012, 6.3827236]}, "properties": {"category": "school", "name": "Ecole Primaire Publique kowegbo"}}, {"type": "Feature", "geometry": {"type": "Point", "coordinates": [2.4598064, 6.3745678]}, "properties": {"category": "marketplace", "name": "Marché de N'vènamedé"}}, {"type": "Feature", "geometry": {"type": "Point", "coordinates": [2.4598815, 6.3729278]}, "properties": {"category": "place_of_worship", "name": "Mosqué Alahou latif"}}, {"type": "Feature", "geometry": {"type": "Point", "coordinates": [2.4643058, 6.3725933]}, "properties": {"category": "pharmacy", "name": "Pharmacie St martin"}}, {"type": "Feature", "geometry": {"type": "Point", "coordinates": [2.4636782, 6.3764191]}, "properties": {"category": "fuel", "name": "Station SURU LERE"}}, {"type": "Feature", "geometry": {"type": "Point", "coordinates": [2.4600143, 6.3712877]}, "properties": {"category": "fuel", "name": ""}}, {"type": "Feature", "geometry": {"type": "Point", "coordinates": [2.4596106, 6.3772394]}, "properties": {"category": "fuel", "name": ""}}, {"type": "Feature", "geometry": {"type": "Point", "coordinates": [2.456819, 6.3772484]}, "properties": {"category": "pharmacy", "name": "Pharmacie Sènadé"}}, {"type": "Feature", "geometry": {"type": "Point", "coordinates": [2.4412072, 6.3811714]}, "properties": {"category": "restaurant", "name": "Soft Bar Resto"}}, {"type": "Feature", "geometry": {"type": "Point", "coordinates": [2.439248, 6.37954]}, "properties": {"category": "fast_food", "name": "Cafétéria Don Perez"}}, {"type": "Feature", "geometry": {"type": "Point", "coordinates": [2.4398857, 6.3799356]}, "properties": {"category": "place_of_worship", "name": "Mosquée Rahmatou Laye"}}, {"type": "Feature", "geometry": {"type": "Point", "coordinates": [2.3514763, 6.5084385]}, "properties": {"category": "school", "name": "Complexe scolaire catholique de la Salle"}}, {"type": "Feature", "geometry": {"type": "Point", "coordinates": [2.353289, 6.50817]}, "properties": {"category": "school", "name": "Lycée technique d’amitié sino-beninoise"}}, {"type": "Feature", "geometry": {"type": "Point", "coordinates": [2.4972775, 6.583121]}, "properties": {"category": "school", "name": "Centre d'Alphabétisation"}}, {"type": "Feature", "geometry": {"type": "Point", "coordinates": [2.4988091, 6.5805232]}, "properties": {"category": "school", "name": "Complex Scolaire Primaire Publique A/B Hetin Aglahounsa"}}, {"type": "Feature", "geometry": {"type": "Point", "coordinates": [2.49551, 6.5809922]}, "properties": {"category": "school", "name": ""}}, {"type": "Feature", "geometry": {"type": "Point", "coordinates": [2.4209817, 6.3704035]}, "properties": {"category": "pharmacy", "name": "Le Conseil"}}, {"type": "Feature", "geometry": {"type": "Point", "coordinates": [2.4019046, 6.3761448]}, "properties": {"category": "fuel", "name": "MRS"}}, {"type": "Feature", "geometry": {"type": "Point", "coordinates": [2.3974039, 6.3769049]}, "properties": {"category": "fuel", "name": "Petroleum"}}, {"type": "Feature", "geometry": {"type": "Point", "coordinates": [2.3581079, 6.5121659]}, "properties": {"category": "clinic", "name": "Clinique la grace de Dieu"}}, {"type": "Feature", "geometry": {"type": "Point", "coordinates": [2.3437384, 6.3870913]}, "properties": {"category": "place_of_worship", "name": ""}}, {"type": "Feature", "geometry": {"type": "Point", "coordinates": [2.3121112, 6.388755]}, "properties": {"category": "fuel", "name": "Oryx"}}, {"type": "Feature", "geometry": {"type": "Point", "coordinates": [2.3635468, 6.5173828]}, "properties": {"category": "school", "name": "CS les 3clées"}}, {"type": "Feature", "geometry": {"type": "Point", "coordinates": [2.3941995, 6.3567686]}, "properties": {"category": "restaurant", "name": "Livingstone"}}, {"type": "Feature", "geometry": {"type": "Point", "coordinates": [2.3617439, 6.356143]}, "properties": {"category": "school", "name": ""}}, {"type": "Feature", "geometry": {"type": "Point", "coordinates": [2.401208, 6.3480301]}, "properties": {"category": "hotel", "name": "Novotel Cotonou Orisha"}}, {"type": "Feature", "geometry": {"type": "Point", "coordinates": [2.4397307, 6.3723429]}, "properties": {"category": "school", "name": "Ecole Primaire de Midombo A et B"}}, {"type": "Feature", "geometry": {"type": "Point", "coordinates": [2.3492569, 6.4522505]}, "properties": {"category": "supermarket", "name": "Supermarché La Famille"}}, {"type": "Feature", "geometry": {"type": "Point", "coordinates": [2.3971904, 6.3563074]}, "properties": {"category": "guest_house", "name": "Guesthouse Haie Vive"}}, {"type": "Feature", "geometry": {"type": "Point", "coordinates": [2.3274833, 6.4024688]}, "properties": {"category": "clinic", "name": "Clinique St. Benjamin"}}, {"type": "Feature", "geometry": {"type": "Point", "coordinates": [2.4225418, 6.3844789]}, "properties": {"category": "place_of_worship", "name": "Temple Bon Berger"}}, {"type": "Feature", "geometry": {"type": "Point", "coordinates": [2.4222212, 6.3842004]}, "properties": {"category": "school", "name": "Complexe Scolaire Gbeffa"}}, {"type": "Feature", "geometry": {"type": "Point", "coordinates": [2.4251211, 6.3842611]}, "properties": {"category": "school", "name": "Brain Builders International School"}}, {"type": "Feature", "geometry": {"type": "Point", "coordinates": [2.42461, 6.3871979]}, "properties": {"category": "place_of_worship", "name": "Couvent Hounkouegbè"}}, {"type": "Feature", "geometry": {"type": "Point", "coordinates": [2.4231504, 6.383854]}, "properties": {"category": "fast_food", "name": "Chez le Vieux Père"}}, {"type": "Feature", "geometry": {"type": "Point", "coordinates": [2.4235573, 6.3841845]}, "properties": {"category": "fast_food", "name": ""}}, {"type": "Feature", "geometry": {"type": "Point", "coordinates": [2.4254208, 6.3847806]}, "properties": {"category": "clinic", "name": "Clinique La Grâce de Dieu"}}, {"type": "Feature", "geometry": {"type": "Point", "coordinates": [2.4118585, 6.3534258]}, "properties": {"category": "bank", "name": "Ecobank"}}, {"type": "Feature", "geometry": {"type": "Point", "coordinates": [2.4242148, 6.3859949]}, "properties": {"category": "school", "name": "Collège catholique Sainte Cécile"}}, {"type": "Feature", "geometry": {"type": "Point", "coordinates": [2.4235834, 6.385807]}, "properties": {"category": "place_of_worship", "name": "Sainte Cécile"}}, {"type": "Feature", "geometry": {"type": "Point", "coordinates": [2.3505526, 6.4618836]}, "properties": {"category": "convenience", "name": ""}}, {"type": "Feature", "geometry": {"type": "Point", "coordinates": [2.3553971, 6.5041122]}, "properties": {"category": "school", "name": ""}}, {"type": "Feature", "geometry": {"type": "Point", "coordinates": [2.3626632, 6.4965236]}, "properties": {"category": "school", "name": "CS Saint Fabien"}}, {"type": "Feature", "geometry": {"type": "Point", "coordinates": [2.4224208, 6.3609603]}, "properties": {"category": "bank", "name": "NSIA Bank"}}, {"type": "Feature", "geometry": {"type": "Point", "coordinates": [2.4249825, 6.370028]}, "properties": {"category": "bank", "name": "Asmab Microfinance"}}, {"type": "Feature", "geometry": {"type": "Point", "coordinates": [2.4471815, 6.3691206]}, "properties": {"category": "school", "name": "CEG AKPAKPA CENTRE"}}, {"type": "Feature", "geometry": {"type": "Point", "coordinates": [2.4461592, 6.3726262]}, "properties": {"category": "place_of_worship", "name": "Eglise Catholique Sacré Coeur"}}, {"type": "Feature", "geometry": {"type": "Point", "coordinates": [2.4467486, 6.3706903]}, "properties": {"category": "hotel", "name": "HOTEL GL"}}, {"type": "Feature", "geometry": {"type": "Point", "coordinates": [2.4525945, 6.3722857]}, "properties": {"category": "pharmacy", "name": "Pharmacie Ciné Concorde"}}, {"type": "Feature", "geometry": {"type": "Point", "coordinates": [2.4466145, 6.3690883]}, "properties": {"category": "post_office", "name": ""}}, {"type": "Feature", "geometry": {"type": "Point", "coordinates": [2.4598795, 6.3742011]}, "properties": {"category": "school", "name": "EPP AMAKENE ESPERANCE"}}, {"type": "Feature", "geometry": {"type": "Point", "coordinates": [2.4618236, 6.3743274]}, "properties": {"category": "restaurant", "name": "ARIYAA CAFETARIAT"}}, {"type": "Feature", "geometry": {"type": "Point", "coordinates": [2.4454603, 6.3720923]}, "properties": {"category": "bank", "name": "BGFI Bank"}}, {"type": "Feature", "geometry": {"type": "Point", "coordinates": [2.4480316, 6.3717211]}, "properties": {"category": "bank", "name": "DIAMOND BANK"}}, {"type": "Feature", "geometry": {"type": "Point", "coordinates": [2.4858525, 6.3686185]}, "properties": {"category": "bank", "name": "Banque Atlantique"}}, {"type": "Feature", "geometry": {"type": "Point", "coordinates": [2.4754328, 6.3678008]}, "properties": {"category": "fuel", "name": "Benin Petro"}}, {"type": "Feature", "geometry": {"type": "Point", "coordinates": [2.4842635, 6.3685266]}, "properties": {"category": "pharmacy", "name": "Pharmacie de l'Abattoir"}}, {"type": "Feature", "geometry": {"type": "Point", "coordinates": [2.4837597, 6.3684525]}, "properties": {"category": "bank", "name": "UBA"}}, {"type": "Feature", "geometry": {"type": "Point", "coordinates": [2.4837007, 6.3685138]}, "properties": {"category": "atm", "name": "UBA"}}, {"type": "Feature", "geometry": {"type": "Point", "coordinates": [2.447157, 6.3682592]}, "properties": {"category": "restaurant", "name": "Maquis YAO"}}, {"type": "Feature", "geometry": {"type": "Point", "coordinates": [2.4552305, 6.3667018]}, "properties": {"category": "pharmacy", "name": "Pharmacie la Béninoise"}}, {"type": "Feature", "geometry": {"type": "Point", "coordinates": [2.4076797, 6.3616908]}, "properties": {"category": "school", "name": "Collège Saint-Roger"}}, {"type": "Feature", "geometry": {"type": "Point", "coordinates": [2.4056236, 6.3592352]}, "properties": {"category": "college", "name": "Cycle Préparatoire Père Aupiais"}}, {"type": "Feature", "geometry": {"type": "Point", "coordinates": [2.463733, 6.3824404]}, "properties": {"category": "place_of_worship", "name": ""}}, {"type": "Feature", "geometry": {"type": "Point", "coordinates": [2.3567354, 6.4848841]}, "properties": {"category": "guest_house", "name": "Ma maison"}}, {"type": "Feature", "geometry": {"type": "Point", "coordinates": [2.4849094, 6.3824087]}, "properties": {"category": "school", "name": "CEG AGBLANGANDAN"}}, {"type": "Feature", "geometry": {"type": "Point", "coordinates": [2.4863971, 6.3825249]}, "properties": {"category": "school", "name": "EPP Davatin"}}, {"type": "Feature", "geometry": {"type": "Point", "coordinates": [2.4645571, 6.3794789]}, "properties": {"category": "hotel", "name": "HOTEL KOB"}}, {"type": "Feature", "geometry": {"type": "Point", "coordinates": [2.4714645, 6.3771318]}, "properties": {"category": "bar", "name": ""}}, {"type": "Feature", "geometry": {"type": "Point", "coordinates": [2.4689392, 6.3787791]}, "properties": {"category": "place_of_worship", "name": ""}}, {"type": "Feature", "geometry": {"type": "Point", "coordinates": [2.4690211, 6.3791243]}, "properties": {"category": "school", "name": ""}}, {"type": "Feature", "geometry": {"type": "Point", "coordinates": [2.4620924, 6.3742909]}, "properties": {"category": "cafe", "name": "Café Pélé"}}, {"type": "Feature", "geometry": {"type": "Point", "coordinates": [2.4617651, 6.3769425]}, "properties": {"category": "supermarket", "name": ""}}, {"type": "Feature", "geometry": {"type": "Point", "coordinates": [2.3019973, 6.388576]}, "properties": {"category": "fuel", "name": "Station Service Oryx"}}, {"type": "Feature", "geometry": {"type": "Point", "coordinates": [2.3598649, 6.4886863]}, "properties": {"category": "school", "name": "EPP Wèkègbo"}}, {"type": "Feature", "geometry": {"type": "Point", "coordinates": [2.3836204, 6.3912481]}, "properties": {"category": "cafe", "name": "Cafétéria"}}, {"type": "Feature", "geometry": {"type": "Point", "coordinates": [2.3726643, 6.3871133]}, "properties": {"category": "school", "name": "Complexe scolaire"}}, {"type": "Feature", "geometry": {"type": "Point", "coordinates": [2.449453, 6.3768919]}, "properties": {"category": "school", "name": "CS Notre Dame de Toutes Graces"}}, {"type": "Feature", "geometry": {"type": "Point", "coordinates": [2.4482218, 6.3782327]}, "properties": {"category": "school", "name": "CSP Bon Berger"}}, {"type": "Feature", "geometry": {"type": "Point", "coordinates": [2.4479885, 6.3766107]}, "properties": {"category": "school", "name": "CSP Lucie Verone"}}, {"type": "Feature", "geometry": {"type": "Point", "coordinates": [2.4497829, 6.3747461]}, "properties": {"category": "school", "name": "CSP St Laurent"}}, {"type": "Feature", "geometry": {"type": "Point", "coordinates": [2.4467808, 6.3768886]}, "properties": {"category": "bank", "name": "Bank of Africa"}}, {"type": "Feature", "geometry": {"type": "Point", "coordinates": [2.4466923, 6.374271]}, "properties": {"category": "pharmacy", "name": "Pharmacie Sacré Coeur"}}, {"type": "Feature", "geometry": {"type": "Point", "coordinates": [2.4467801, 6.3812302]}, "properties": {"category": "pharmacy", "name": "Pharmacie Segbeya"}}, {"type": "Feature", "geometry": {"type": "Point", "coordinates": [2.4467513, 6.380058]}, "properties": {"category": "bank", "name": "UBA"}}, {"type": "Feature", "geometry": {"type": "Point", "coordinates": [2.446129, 6.3735219]}, "properties": {"category": "school", "name": ""}}, {"type": "Feature", "geometry": {"type": "Point", "coordinates": [2.447106, 6.380048]}, "properties": {"category": "supermarket", "name": ""}}, {"type": "Feature", "geometry": {"type": "Point", "coordinates": [2.4272787, 6.3618936]}, "properties": {"category": "fast_food", "name": "Bénin soir maquis"}}, {"type": "Feature", "geometry": {"type": "Point", "coordinates": [2.427767, 6.3622629]}, "properties": {"category": "hotel", "name": "Hôtel MelJomar"}}, {"type": "Feature", "geometry": {"type": "Point", "coordinates": [2.4272282, 6.3617871]}, "properties": {"category": "school", "name": "École Libanaise-Cotonou"}}, {"type": "Feature", "geometry": {"type": "Point", "coordinates": [2.4255231, 6.360122]}, "properties": {"category": "supermarket", "name": "Chez Karim"}}, {"type": "Feature", "geometry": {"type": "Point", "coordinates": [2.4552351, 6.3814708]}, "properties": {"category": "hotel", "name": "Hotel Phénix"}}, {"type": "Feature", "geometry": {"type": "Point", "coordinates": [2.4206761, 6.3637992]}, "properties": {"category": "hotel", "name": "BENIN ROYAL HOTEL"}}, {"type": "Feature", "geometry": {"type": "Point", "coordinates": [2.4258161, 6.3606694]}, "properties": {"category": "clinic", "name": "Centre médico-social Sainte Anne d'Afrique"}}, {"type": "Feature", "geometry": {"type": "Point", "coordinates": [2.2214199, 6.3859017]}, "properties": {"category": "place_of_worship", "name": "Paroisse de Pahou"}}, {"type": "Feature", "geometry": {"type": "Point", "coordinates": [2.2041509, 6.3852901]}, "properties": {"category": "fuel", "name": "Ewell"}}, {"type": "Feature", "geometry": {"type": "Point", "coordinates": [2.215836, 6.3854587]}, "properties": {"category": "pharmacy", "name": "Pharmacie de Pahou"}}, {"type": "Feature", "geometry": {"type": "Point", "coordinates": [2.3703293, 6.3918879]}, "properties": {"category": "clinic", "name": "Clinique saint Augustin"}}, {"type": "Feature", "geometry": {"type": "Point", "coordinates": [2.3992587, 6.3581716]}, "properties": {"category": "hotel", "name": "Hôtel Méditerrané"}}, {"type": "Feature", "geometry": {"type": "Point", "coordinates": [2.4218641, 6.3603897]}, "properties": {"category": "pharmacy", "name": "Pharmacie Saint-Jean"}}, {"type": "Feature", "geometry": {"type": "Point", "coordinates": [2.3266424, 6.3869275]}, "properties": {"category": "bank", "name": "Bank of Africa"}}, {"type": "Feature", "geometry": {"type": "Point", "coordinates": [2.4335998, 6.3660654]}, "properties": {"category": "bank", "name": "Diamond Bank"}}, {"type": "Feature", "geometry": {"type": "Point", "coordinates": [2.4339672, 6.366005]}, "properties": {"category": "bank", "name": "Ecobank"}}, {"type": "Feature", "geometry": {"type": "Point", "coordinates": [2.4341699, 6.3653988]}, "properties": {"category": "pharmacy", "name": "Pharmacie Saint-Joseph"}}, {"type": "Feature", "geometry": {"type": "Point", "coordinates": [2.434249, 6.3652016]}, "properties": {"category": "bank", "name": "Diamond Bank"}}, {"type": "Feature", "geometry": {"type": "Point", "coordinates": [2.3617215, 6.3906531]}, "properties": {"category": "bar", "name": ""}}, {"type": "Feature", "geometry": {"type": "Point", "coordinates": [2.4279563, 6.3665673]}, "properties": {"category": "place_of_worship", "name": "Eglise Saint Michel Gbéto de Cotonou"}}, {"type": "Feature", "geometry": {"type": "Point", "coordinates": [2.2496363, 6.3460363]}, "properties": {"category": "school", "name": ""}}, {"type": "Feature", "geometry": {"type": "Point", "coordinates": [2.3084046, 6.3498527]}, "properties": {"category": "school", "name": "Cours tamegnon"}}, {"type": "Feature", "geometry": {"type": "Point", "coordinates": [2.3904333, 6.3820833]}, "properties": {"category": "place_of_worship", "name": "Mosquée lumière de l'islam"}}, {"type": "Feature", "geometry": {"type": "Point", "coordinates": [2.3310883, 6.414675]}, "properties": {"category": "school", "name": "Complèxe scolaire Camara Laye"}}, {"type": "Feature", "geometry": {"type": "Point", "coordinates": [2.3259867, 6.4192033]}, "properties": {"category": "school", "name": "Collège d’enseignement général Jean Piaget 1"}}, {"type": "Feature", "geometry": {"type": "Point", "coordinates": [2.322815, 6.4221267]}, "properties": {"category": "place_of_worship", "name": "Mosquée Ya Allahou"}}, {"type": "Feature", "geometry": {"type": "Point", "coordinates": [2.2659583, 6.407175]}, "properties": {"category": "pharmacy", "name": "Pharmacie Hêvié"}}, {"type": "Feature", "geometry": {"type": "Point", "coordinates": [2.3313464, 6.3819942]}, "properties": {"category": "pharmacy", "name": "Pharmacie Dekoungbe"}}, {"type": "Feature", "geometry": {"type": "Point", "coordinates": [2.2763793, 6.455982]}, "properties": {"category": "pharmacy", "name": "Pharmacie Les Graces Divines de Ouedo"}}, {"type": "Feature", "geometry": {"type": "Point", "coordinates": [2.3117919, 6.4180273]}, "properties": {"category": "pharmacy", "name": "Pharmacie Maria Gléta"}}, {"type": "Feature", "geometry": {"type": "Point", "coordinates": [2.3579032, 6.6100267]}, "properties": {"category": "police", "name": "Brigade territoriale de Zinvié"}}, {"type": "Feature", "geometry": {"type": "Point", "coordinates": [2.362127, 6.6713775]}, "properties": {"category": "school", "name": "CEG Kpanroun"}}, {"type": "Feature", "geometry": {"type": "Point", "coordinates": [2.3565889, 6.6159948]}, "properties": {"category": "school", "name": "EPP Zinvié Centre A:B"}}, {"type": "Feature", "geometry": {"type": "Point", "coordinates": [2.3638228, 6.5988068]}, "properties": {"category": "hospital", "name": "Hopital La Croix de Zinvié"}}, {"type": "Feature", "geometry": {"type": "Point", "coordinates": [2.3573077, 6.6152382]}, "properties": {"category": "marketplace", "name": "Marché de Zinvié"}},