{"type": "FeatureCollection", "generator": "eya build_road_propagation.py · points", "features": [{"type": "Feature", "geometry": {"type": "Point", "coordinates": [2.348833774878387, 6.350590159498857]}, "properties": {"name": "Fiyégnon-Houta", "arrondissement": "12ème Arrondissement", "color": "#c6664b", "kind": "chef_lieu", "snapped": true, "snap_m": 2.4, "off_road": false, "off_road_reason": null}}, {"type": "Feature", "geometry": {"type": "Point", "coordinates": [2.485058184575597, 6.368890460329282]}, "properties": {"name": "Dandji-Hokanmè", "arrondissement": "1er Arrondissement", "color": "#4bcebd", "kind": "chef_lieu", "snapped": true, "snap_m": 28.5, "off_road": false, "off_road_reason": null}}, {"type": "Feature", "geometry": {"type": "Point", "coordinates": [2.465827538994987, 6.382225978472974]}, "properties": {"name": "Kowégbo", "arrondissement": "2ème Arrondissement", "color": "#4ad651", "kind": "chef_lieu", "snapped": true, "snap_m": 5.4, "off_road": false, "off_road_reason": null}}, {"type": "Feature", "geometry": {"type": "Point", "coordinates": [2.332807922474081, 6.372419386290843]}, "properties": {"name": "Ningboto\n", "arrondissement": "Godomey", "color": "#dea749", "kind": "chef_lieu", "snapped": true, "snap_m": 9.0, "off_road": false, "off_road_reason": null}}, {"type": "Feature", "geometry": {"type": "Point", "coordinates": [2.362304065520742, 6.368747753812433]}, "properties": {"name": "Hlazounto", "arrondissement": "12ème Arrondissement", "color": "#a73fcd", "kind": "chef_lieu", "snapped": true, "snap_m": 10.0, "off_road": false, "off_road_reason": null}}, {"type": "Feature", "geometry": {"type": "Point", "coordinates": [2.419987013420057, 6.366871648998257]}, "properties": {"name": "Yévèdo", "arrondissement": "7ème Arrondissement", "color": "#84d43e", "kind": "chef_lieu", "snapped": true, "snap_m": 2.4, "off_road": false, "off_road_reason": null}}, {"type": "Feature", "geometry": {"type": "Point", "coordinates": [2.431831981810393, 6.368611289545064]}, "properties": {"name": "Nouveau-Pont", "arrondissement": "5ème Arrondissement", "color": "#dcc353", "kind": "chef_lieu", "snapped": true, "snap_m": 8.6, "off_road": false, "off_road_reason": null}}, {"type": "Feature", "geometry": {"type": "Point", "coordinates": [2.433785433750298, 6.374926295307048]}, "properties": {"name": "Hindé-Sud", "arrondissement": "6ème Arrondissement", "color": "#cb4954", "kind": "chef_lieu", "snapped": true, "snap_m": 5.1, "off_road": false, "off_road_reason": null}}, {"type": "Feature", "geometry": {"type": "Point", "coordinates": [2.30680022495434, 6.473549012939534]}, "properties": {"name": "Ouéga-Tokpa", "arrondissement": "Togba", "color": "#d3487b", "kind": "chef_lieu", "snapped": true, "snap_m": 8.7, "off_road": false, "off_road_reason": null}}, {"type": "Feature", "geometry": {"type": "Point", "coordinates": [2.311011140076428, 6.418191131019869]}, "properties": {"name": "Tankpè-Togoudo", "arrondissement": "Godomey", "color": "#76db47", "kind": "chef_lieu", "snapped": true, "snap_m": 9.4, "off_road": false, "off_road_reason": null}}, {"type": "Feature", "geometry": {"type": "Point", "coordinates": [2.413874502852743, 6.374683408489917]}, "properties": {"name": "Minonkpô-Wologuèdè", "arrondissement": "8ème Arrondissement", "color": "#c9c03e", "kind": "chef_lieu", "snapped": true, "snap_m": 5.8, "off_road": false, "off_road_reason": null}}, {"type": "Feature", "geometry": {"type": "Point", "coordinates": [2.337956703847636, 6.403574813297991]}, "properties": {"name": "Djoukpa-Togoudo\n", "arrondissement": "Godomey", "color": "#3dd1c5", "kind": "chef_lieu", "snapped": true, "snap_m": 12.9, "off_road": false, "off_road_reason": null}}, {"type": "Feature", "geometry": {"type": "Point", "coordinates": [2.399114060918247, 6.357934028105427]}, "properties": {"name": "Cadjèhoun-Azalokogon", "arrondissement": "12ème Arrondissement", "color": "#d951d0", "kind": "chef_lieu", "snapped": true, "snap_m": 16.0, "off_road": false, "off_road_reason": null}}, {"type": "Feature", "geometry": {"type": "Point", "coordinates": [2.322904265361397, 6.440133968414679]}, "properties": {"name": "Fifonsi\n", "arrondissement": "Togba", "color": "#c7b847", "kind": "chef_lieu", "snapped": true, "snap_m": 5.6, "off_road": false, "off_road_reason": null}}, {"type": "Feature", "geometry": {"type": "Point", "coordinates": [2.33370016269819, 6.387344831642028]}, "properties": {"name": "Ounvènoumèdé\n", "arrondissement": "Godomey", "color": "#7dcf46", "kind": "chef_lieu", "snapped": true, "snap_m": 12.1, "off_road": false, "off_road_reason": null}}, {"type": "Feature", "geometry": {"type": "Point", "coordinates": [2.249778841056814, 6.456355067632562]}, "properties": {"name": "Zoungo", "arrondissement": "Hêvié", "color": "#c1d746", "kind": "chef_lieu", "snapped": true, "snap_m": 7.3, "off_road": false, "off_road_reason": null}}, {"type": "Feature", "geometry": {"type": "Point", "coordinates": [2.310385829352795, 6.432375677616995]}, "properties": {"name": "Tankpê-Yoho", "arrondissement": "Abomey-Calavi", "color": "#df44d5", "kind": "chef_lieu", "snapped": true, "snap_m": 18.0, "off_road": false, "off_road_reason": null}}, {"type": "Feature", "geometry": {"type": "Point", "coordinates": [2.444688908537918, 6.361032388167098]}, "properties": {"name": "Akpakpa-Dodomè", "arrondissement": "4ème Arrondissement", "color": "#cd3bb3", "kind": "chef_lieu", "snapped": true, "snap_m": 10.4, "off_road": false, "off_road_reason": null}}, {"type": "Feature", "geometry": {"type": "Point", "coordinates": [2.251339955057393, 6.405935388248944]}, "properties": {"name": "Akossavié", "arrondissement": "Hêvié", "color": "#d5ad4f", "kind": "chef_lieu", "snapped": true, "snap_m": 19.4, "off_road": false, "off_road_reason": null}}, {"type": "Feature", "geometry": {"type": "Point", "coordinates": [2.400424259787283, 6.364087978432719]}, "properties": {"name": "Cadjèhoun-Kpota", "arrondissement": "12ème Arrondissement", "color": "#ddcf4f", "kind": "chef_lieu", "snapped": true, "snap_m": 6.8, "off_road": false, "off_road_reason": null}}, {"type": "Feature", "geometry": {"type": "Point", "coordinates": [2.468414428686719, 6.372772934582578]}, "properties": {"name": "Yagbé", "arrondissement": "1er Arrondissement", "color": "#cc5745", "kind": "chef_lieu", "snapped": true, "snap_m": 10.4, "off_road": false, "off_road_reason": null}}, {"type": "Feature", "geometry": {"type": "Point", "coordinates": [2.31550692354515, 6.548696185925619]}, "properties": {"name": "Agonkèssa", "arrondissement": "Golo-Djigbé", "color": "#d34452", "kind": "chef_lieu", "snapped": true, "snap_m": 8.0, "off_road": false, "off_road_reason": null}}, {"type": "Feature", "geometry": {"type": "Point", "coordinates": [2.436275170808476, 6.36296050618788]}, "properties": {"name": "Missèbô", "arrondissement": "5ème Arrondissement", "color": "#db4378", "kind": "chef_lieu", "snapped": true, "snap_m": 6.4, "off_road": false, "off_road_reason": null}}, {"type": "Feature", "geometry": {"type": "Point", "coordinates": [2.32009876191539, 6.382409347079445]}, "properties": {"name": "Agbo Codji Sèdégbé", "arrondissement": "Godomey", "color": "#87ca3a", "kind": "chef_lieu", "snapped": true, "snap_m": 4.1, "off_road": false, "off_road_reason": null}}, {"type": "Feature", "geometry": {"type": "Point", "coordinates": [2.286275150402624, 6.378162101812441]}, "properties": {"name": "Amahoun\n", "arrondissement": "Godomey", "color": "#d26c4e", "kind": "chef_lieu", "snapped": true, "snap_m": 13.2, "off_road": false, "off_road_reason": null}}, {"type": "Feature", "geometry": {"type": "Point", "coordinates": [2.305203182976217, 6.370196657494528]}, "properties": {"name": "Ganganzounmè\n", "arrondissement": "Godomey", "color": "#da804d", "kind": "chef_lieu", "snapped": true, "snap_m": 0.7, "off_road": false, "off_road_reason": null}}, {"type": "Feature", "geometry": {"type": "Point", "coordinates": [2.318160123066209, 6.402473543804953]}, "properties": {"name": "Gbègnigan-Midokpo\n", "arrondissement": "Godomey", "color": "#c89743", "kind": "chef_lieu", "snapped": true, "snap_m": 10.5, "off_road": false, "off_road_reason": null}}, {"type": "Feature", "geometry": {"type": "Point", "coordinates": [2.347429917120945, 6.422987937412913]}, "properties": {"name": "Tokpa-Zoungo-Sud\n", "arrondissement": "Abomey-Calavi", "color": "#42d0af", "kind": "chef_lieu", "snapped": true, "snap_m": 10.7, "off_road": false, "off_road_reason": null}}, {"type": "Feature", "geometry": {"type": "Point", "coordinates": [2.331952378671597, 6.414225063087606]}, "properties": {"name": "Cité-la-Victoire\n", "arrondissement": "Abomey-Calavi", "color": "#41d871", "kind": "chef_lieu", "snapped": true, "snap_m": 4.6, "off_road": false, "off_road_reason": null}}, {"type": "Feature", "geometry": {"type": "Point", "coordinates": [2.385256327528561, 6.37401256015859]}, "properties": {"name": "Ahogbohoué-Cité-Eucharistie", "arrondissement": "13ème Arrondissement", "color": "#cd40e0", "kind": "chef_lieu", "snapped": true, "snap_m": 49.5, "off_road": false, "off_road_reason": null}}, {"type": "Feature", "geometry": {"type": "Point", "coordinates": [2.336999915090381, 6.603831914331917]}, "properties": {"name": "Zinvié-Agolèdji", "arrondissement": "Zinvié", "color": "#ce4c93", "kind": "chef_lieu", "snapped": true, "snap_m": 4.9, "off_road": false, "off_road_reason": null}}, {"type": "Feature", "geometry": {"type": "Point", "coordinates": [2.369749036791143, 6.391295178670569]}, "properties": {"name": "Mènontin", "arrondissement": "9ème Arrondissement", "color": "#93d64b", "kind": "chef_lieu", "snapped": true, "snap_m": 2.2, "off_road": false, "off_road_reason": null}}, {"type": "Feature", "geometry": {"type": "Point", "coordinates": [2.419311768041911, 6.363334204650752]}, "properties": {"name": "Todoté", "arrondissement": "7ème Arrondissement", "color": "#b9de4a", "kind": "chef_lieu", "snapped": true, "snap_m": 10.5, "off_road": false, "off_road_reason": null}}, {"type": "Feature", "geometry": {"type": "Point", "coordinates": [2.288105224163952, 6.566643828490631]}, "properties": {"name": "Djissoukpa", "arrondissement": "Golo-Djigbé", "color": "#41cc61", "kind": "chef_lieu", "snapped": true, "snap_m": 8.7, "off_road": false, "off_road_reason": null}}, {"type": "Feature", "geometry": {"type": "Point", "coordinates": [2.417275366667791, 6.377342392592282]}, "properties": {"name": "Missité-Sikê", "arrondissement": "7ème Arrondissement", "color": "#40d4bb", "kind": "chef_lieu", "snapped": true, "snap_m": 9.4, "off_road": false, "off_road_reason": null}}, {"type": "Feature", "geometry": {"type": "Point", "coordinates": [2.368442831133803, 6.352294872042274]}, "properties": {"name": "Fiyégnon-Jacquot", "arrondissement": "12ème Arrondissement", "color": "#dc3e9a", "kind": "chef_lieu", "snapped": true, "snap_m": 6.5, "off_road": false, "off_road_reason": null}}, {"type": "Feature", "geometry": {"type": "Point", "coordinates": [2.400363605642935, 6.393441676038004]}, "properties": {"name": "Fifadji", "arrondissement": "9ème Arrondissement", "color": "#a24aca", "kind": "chef_lieu", "snapped": true, "snap_m": 1.7, "off_road": false, "off_road_reason": null}}, {"type": "Feature", "geometry": {"type": "Point", "coordinates": [2.400699227180686, 6.372012092065715]}, "properties": {"name": "Vodjè-Finagnon", "arrondissement": "11ème Arrondissement", "color": "#d2794a", "kind": "chef_lieu", "snapped": true, "snap_m": 10.9, "off_road": false, "off_road_reason": null}}, {"type": "Feature", "geometry": {"type": "Point", "coordinates": [2.45358716325789, 6.377121928357666]}, "properties": {"name": "Lom-Nava", "arrondissement": "2ème Arrondissement", "color": "#da4949", "kind": "chef_lieu", "snapped": true, "snap_m": 1.4, "off_road": false, "off_road_reason": null}}, {"type": "Feature", "geometry": {"type": "Point", "coordinates": [2.30449474291105, 6.564084706418892]}, "properties": {"name": "Espace-Saint", "arrondissement": "Golo-Djigbé", "color": "#c93fb6", "kind": "chef_lieu", "snapped": true, "snap_m": 10.8, "off_road": false, "off_road_reason": null}}, {"type": "Feature", "geometry": {"type": "Point", "coordinates": [2.307409725754017, 6.422174415569062]}, "properties": {"name": "Maria-Gléta\n", "arrondissement": "Godomey", "color": "#d1523e", "kind": "chef_lieu", "snapped": true, "snap_m": 11.8, "off_road": false, "off_road_reason": null}}, {"type": "Feature", "geometry": {"type": "Point", "coordinates": [2.385935060407983, 6.379254118857429]}, "properties": {"name": "Védokô", "arrondissement": "10ème Arrondissement", "color": "#3dd9d3", "kind": "chef_lieu", "snapped": true, "snap_m": 29.4, "off_road": false, "off_road_reason": null}}, {"type": "Feature", "geometry": {"type": "Point", "coordinates": [2.453444712603947, 6.382341885996753]}, "properties": {"name": "Kpondéhou-Tchèmè", "arrondissement": "2ème Arrondissement", "color": "#48c78e", "kind": "chef_lieu", "snapped": true, "snap_m": 9.5, "off_road": false, "off_road_reason": null}}, {"type": "Feature", "geometry": {"type": "Point", "coordinates": [2.334256920885097, 6.443043601716527]}, "properties": {"name": "Alédjo\n", "arrondissement": "Abomey-Calavi", "color": "#cfc148", "kind": "chef_lieu", "snapped": true, "snap_m": 6.8, "off_road": false, "off_road_reason": null}}, {"type": "Feature", "geometry": {"type": "Point", "coordinates": [2.352761068854433, 6.701198048777196]}, "properties": {"name": "Ahowégodo", "arrondissement": "Kpanroun", "color": "#d79147", "kind": "chef_lieu", "snapped": true, "snap_m": 174.4, "off_road": true, "off_road_reason": "nearest road 174 m away (threshold 100 m)"}}, {"type": "Feature", "geometry": {"type": "Point", "coordinates": [2.385571301988101, 6.387897930129924]}, "properties": {"name": "Agounvocôdji", "arrondissement": "10ème Arrondissement", "color": "#46df8d", "kind": "chef_lieu", "snapped": true, "snap_m": 4.7, "off_road": false, "off_road_reason": null}}, {"type": "Feature", "geometry": {"type": "Point", "coordinates": [2.29897343498701, 6.453545179815483]}, "properties": {"name": "Somè", "arrondissement": "Togba", "color": "#3dcdbc", "kind": "chef_lieu", "snapped": true, "snap_m": 17.0, "off_road": false, "off_road_reason": null}}, {"type": "Feature", "geometry": {"type": "Point", "coordinates": [2.337728614672263, 6.409045598543866]}, "properties": {"name": "Agonkanmey\n", "arrondissement": "Godomey", "color": "#3bd541", "kind": "chef_lieu", "snapped": true, "snap_m": 9.8, "off_road": false, "off_road_reason": null}}, {"type": "Feature", "geometry": {"type": "Point", "coordinates": [2.318474147338697, 6.371781707862775]}, "properties": {"name": "Dèkoungbé-Église\n", "arrondissement": "Godomey", "color": "#68dd50", "kind": "chef_lieu", "snapped": true, "snap_m": 2.7, "off_road": false, "off_road_reason": null}}, {"type": "Feature", "geometry": {"type": "Point", "coordinates": [2.353576539742456, 6.393345742509593]}, "properties": {"name": "Finafa\n", "arrondissement": "Godomey", "color": "#84cb46", "kind": "chef_lieu", "snapped": true, "snap_m": 8.8, "off_road": false, "off_road_reason": null}}, {"type": "Feature", "geometry": {"type": "Point", "coordinates": [2.45024638006181, 6.392860824205965]}, "properties": {"name": "Minontchou", "arrondissement": "2ème Arrondissement", "color": "#d34580", "kind": "chef_lieu", "snapped": true, "snap_m": 6.1, "off_road": false, "off_road_reason": null}}, {"type": "Feature", "geometry": {"type": "Point", "coordinates": [2.341055266796695, 6.531631623780778]}, "properties": {"name": "Zèkanmey-Domè", "arrondissement": "Akassato", "color": "#db7644", "kind": "chef_lieu", "snapped": true, "snap_m": 4.9, "off_road": false, "off_road_reason": null}}, {"type": "Feature", "geometry": {"type": "Point", "coordinates": [2.439451918940784, 6.358973822984335]}, "properties": {"name": "Tokpa-Hoho", "arrondissement": "5ème Arrondissement", "color": "#c93b5f", "kind": "chef_lieu", "snapped": true, "snap_m": 9.5, "off_road": false, "off_road_reason": null}}, {"type": "Feature", "geometry": {"type": "Point", "coordinates": [2.424121282890475, 6.370194430138387]}, "properties": {"name": "Sèdami", "arrondissement": "7ème Arrondissement", "color": "#4fd165", "kind": "chef_lieu", "snapped": true, "snap_m": 5.2, "off_road": false, "off_road_reason": null}}, {"type": "Feature", "geometry": {"type": "Point", "coordinates": [2.420030117529112, 6.379552595585931]}, "properties": {"name": "Gbèdjromèdè", "arrondissement": "6ème Arrondissement", "color": "#4ed9d7", "kind": "chef_lieu", "snapped": true, "snap_m": 2.4, "off_road": false, "off_road_reason": null}}, {"type": "Feature", "geometry": {"type": "Point", "coordinates": [2.272137151986549, 6.388040794330395]}, "properties": {"name": "Cococodji", "arrondissement": "Godomey", "color": "#ad45c8", "kind": "chef_lieu", "snapped": true, "snap_m": 13.4, "off_road": false, "off_road_reason": null}}, {"type": "Feature", "geometry": {"type": "Point", "coordinates": [2.449510486502952, 6.368479246943725]}, "properties": {"name": "Sodjatinmè-Ouest", "arrondissement": "4ème Arrondissement", "color": "#d0aa44", "kind": "chef_lieu", "snapped": true, "snap_m": 11.5, "off_road": false, "off_road_reason": null}}, {"type": "Feature", "geometry": {"type": "Point", "coordinates": [2.35324370104309, 6.37838417069406]}, "properties": {"name": "Agla-Figaro", "arrondissement": "13ème Arrondissement", "color": "#d79243", "kind": "chef_lieu", "snapped": true, "snap_m": 2.8, "off_road": false, "off_road_reason": null}}, {"type": "Feature", "geometry": {"type": "Point", "coordinates": [2.306642391722998, 6.388911807581605]}, "properties": {"name": "Tokpa\n", "arrondissement": "Godomey", "color": "#d5df41", "kind": "chef_lieu", "snapped": true, "snap_m": 12.3, "off_road": false, "off_road_reason": null}}, {"type": "Feature", "geometry": {"type": "Point", "coordinates": [2.316384589632573, 6.562676885348218]}, "properties": {"name": "Yèkon-Do", "arrondissement": "Golo-Djigbé", "color": "#85ce4d", "kind": "chef_lieu", "snapped": true, "snap_m": 2.2, "off_road": false, "off_road_reason": null}}, {"type": "Feature", "geometry": {"type": "Point", "coordinates": [2.354827650456111, 6.499733027376658]}, "properties": {"name": "Houèkè-Honou", "arrondissement": "Akassato", "color": "#4dd6af", "kind": "chef_lieu", "snapped": true, "snap_m": 0.5, "off_road": false, "off_road_reason": null}}, {"type": "Feature", "geometry": {"type": "Point", "coordinates": [2.41979954101738, 6.374118417391376]}, "properties": {"name": "Fignon-Sikê", "arrondissement": "7ème Arrondissement", "color": "#de4cd6", "kind": "chef_lieu", "snapped": true, "snap_m": 1.3, "off_road": false, "off_road_reason": null}}, {"type": "Feature", "geometry": {"type": "Point", "coordinates": [2.403150887186906, 6.368643731632697]}, "properties": {"name": "Vodjè-Centre", "arrondissement": "11ème Arrondissement", "color": "#67cc42", "kind": "chef_lieu", "snapped": true, "snap_m": 1.2, "off_road": false, "off_road_reason": null}}, {"type": "Feature", "geometry": {"type": "Point", "coordinates": [2.437618371294602, 6.353551437010183]}, "properties": {"name": "Xwlacôdji-Kpodji", "arrondissement": "5ème Arrondissement", "color": "#41d477", "kind": "chef_lieu", "snapped": true, "snap_m": 6.5, "off_road": false, "off_road_reason": null}}, {"type": "Feature", "geometry": {"type": "Point", "coordinates": [2.350493145732543, 6.3747576477173]}, "properties": {"name": "Gbodjètin", "arrondissement": "12ème Arrondissement", "color": "#dc4840", "kind": "chef_lieu", "snapped": true, "snap_m": 19.9, "off_road": false, "off_road_reason": null}}, {"type": "Feature", "geometry": {"type": "Point", "coordinates": [2.403643470878895, 6.378984272384219]}, "properties": {"name": "Houénoussou-Sainte-Rita", "arrondissement": "8ème Arrondissement", "color": "#ca4c82", "kind": "chef_lieu", "snapped": true, "snap_m": 1.1, "off_road": false, "off_road_reason": null}}, {"type": "Feature", "geometry": {"type": "Point", "coordinates": [2.404705381238561, 6.386201155083969]}, "properties": {"name": "Missèkplé", "arrondissement": "10ème Arrondissement", "color": "#d2764b", "kind": "chef_lieu", "snapped": true, "snap_m": 4.0, "off_road": false, "off_road_reason": null}}, {"type": "Feature", "geometry": {"type": "Point", "coordinates": [2.388390601734404, 6.381389218388034]}, "properties": {"name": "Sètôvi", "arrondissement": "10ème Arrondissement", "color": "#da4a4f", "kind": "chef_lieu", "snapped": true, "snap_m": 2.2, "off_road": false, "off_road_reason": null}}, {"type": "Feature", "geometry": {"type": "Point", "coordinates": [2.4534998987347, 6.385806338456955]}, "properties": {"name": "Kpondéhou", "arrondissement": "2ème Arrondissement", "color": "#41c872", "kind": "chef_lieu", "snapped": true, "snap_m": 8.7, "off_road": false, "off_road_reason": null}}, {"type": "Feature", "geometry": {"type": "Point", "coordinates": [2.351710338340989, 6.60229913343201]}, "properties": {"name": "Sokan", "arrondissement": "Zinvié", "color": "#d040bd", "kind": "chef_lieu", "snapped": true, "snap_m": 9.5, "off_road": false, "off_road_reason": null}}, {"type": "Feature", "geometry": {"type": "Point", "coordinates": [2.337775794507753, 6.45306360958733]}, "properties": {"name": "Aïtchédji\n", "arrondissement": "Abomey-Calavi", "color": "#d86d3e", "kind": "chef_lieu", "snapped": true, "snap_m": 4.2, "off_road": false, "off_road_reason": null}}, {"type": "Feature", "geometry": {"type": "Point", "coordinates": [2.404373144644898, 6.367156849466723]}, "properties": {"name": "Cadjèhoun-Détinsa", "arrondissement": "12ème Arrondissement", "color": "#c7b04a", "kind": "chef_lieu", "snapped": true, "snap_m": 4.4, "off_road": false, "off_road_reason": null}}, {"type": "Feature", "geometry": {"type": "Point", "coordinates": [2.421156834029744, 6.388161451469938]}, "properties": {"name": "Ahouansouri-Agué", "arrondissement": "6ème Arrondissement", "color": "#cf5f49", "kind": "chef_lieu", "snapped": true, "snap_m": 10.2, "off_road": false, "off_road_reason": null}}, {"type": "Feature", "geometry": {"type": "Point", "coordinates": [2.284048094633298, 6.386948849137686]}, "properties": {"name": "Gbodjè-Womey\n", "arrondissement": "Godomey", "color": "#48d6d4", "kind": "chef_lieu", "snapped": true, "snap_m": 10.0, "off_road": false, "off_road_reason": null}}, {"type": "Feature", "geometry": {"type": "Point", "coordinates": [2.303694635891587, 6.440538017159928]}, "properties": {"name": "Houèto", "arrondissement": "Togba", "color": "#de47d2", "kind": "chef_lieu", "snapped": true, "snap_m": 11.3, "off_road": false, "off_road_reason": null}}, {"type": "Feature", "geometry": {"type": "Point", "coordinates": [2.347094978684952, 6.441620302625488]}, "properties": {"name": "Finafa\n", "arrondissement": "Abomey-Calavi", "color": "#81cd3e", "kind": "chef_lieu", "snapped": true, "snap_m": 4.6, "off_road": false, "off_road_reason": null}}, {"type": "Feature", "geometry": {"type": "Point", "coordinates": [2.405402807299402, 6.395427321419099]}, "properties": {"name": "Vossa-Kpodji", "arrondissement": "9ème Arrondissement", "color": "#d53da7", "kind": "chef_lieu", "snapped": true, "snap_m": 5.2, "off_road": false, "off_road_reason": null}}, {"type": "Feature", "geometry": {"type": "Point", "coordinates": [2.31966769668296, 6.417671144766262]}, "properties": {"name": "Alègléta", "arrondissement": "Godomey", "color": "#52ddac", "kind": "chef_lieu", "snapped": true, "snap_m": 6.0, "off_road": false, "off_road_reason": null}}, {"type": "Feature", "geometry": {"type": "Point", "coordinates": [2.33332276107443, 6.360712320315931]}, "properties": {"name": "Yèmicodji", "arrondissement": "12ème Arrondissement", "color": "#cb6448", "kind": "chef_lieu", "snapped": true, "snap_m": 11.8, "off_road": false, "off_road_reason": null}}, {"type": "Feature", "geometry": {"type": "Point", "coordinates": [2.319582192026844, 6.617268020769844]}, "properties": {"name": "Dangbodji", "arrondissement": "Zinvié", "color": "#d347d3", "kind": "chef_lieu", "snapped": true, "snap_m": 2.0, "off_road": false, "off_road_reason": null}}, {"type": "Feature", "geometry": {"type": "Point", "coordinates": [2.403176633681567, 6.373929769245663]}, "properties": {"name": "Vodjè-Ayidoté", "arrondissement": "11ème Arrondissement", "color": "#9fdb46", "kind": "chef_lieu", "snapped": true, "snap_m": 7.0, "off_road": false, "off_road_reason": null}}, {"type": "Feature", "geometry": {"type": "Point", "coordinates": [2.341326632989754, 6.40142914196411]}, "properties": {"name": "Godomey-Togoudo", "arrondissement": "Godomey", "color": "#c93d4b", "kind": "chef_lieu", "snapped": true, "snap_m": 4.6, "off_road": false, "off_road_reason": null}}, {"type": "Feature", "geometry": {"type": "Point", "coordinates": [2.374924648937617, 6.597263930832368]}, "properties": {"name": "Yèvié", "arrondissement": "Zinvié", "color": "#d1983b", "kind": "chef_lieu", "snapped": true, "snap_m": 11.1, "off_road": false, "off_road_reason": null}}, {"type": "Feature", "geometry": {"type": "Point", "coordinates": [2.322947200894462, 6.625339951251696]}, "properties": {"name": "Wawata", "arrondissement": "Zinvié", "color": "#d950b0", "kind": "chef_lieu", "snapped": true, "snap_m": 5.3, "off_road": false, "off_road_reason": null}}, {"type": "Feature", "geometry": {"type": "Point", "coordinates": [2.338355982417123, 6.550911032367873]}, "properties": {"name": "Agonmé", "arrondissement": "Akassato", "color": "#a1c746", "kind": "chef_lieu", "snapped": true, "snap_m": 1.6, "off_road": false, "off_road_reason": null}}, {"type": "Feature", "geometry": {"type": "Point", "coordinates": [2.353408399411088, 6.570910870980369]}, "properties": {"name": "Kolètin", "arrondissement": "Akassato", "color": "#68cf45", "kind": "chef_lieu", "snapped": true, "snap_m": 14.0, "off_road": false, "off_road_reason": null}}, {"type": "Feature", "geometry": {"type": "Point", "coordinates": [2.307201053743135, 6.354858279230302]}, "properties": {"name": "Togbin-Daho", "arrondissement": "Godomey", "color": "#44d75a", "kind": "chef_lieu", "snapped": true, "snap_m": 6.5, "off_road": false, "off_road_reason": null}}, {"type": "Feature", "geometry": {"type": "Point", "coordinates": [2.356630093681976, 6.629978893084875]}, "properties": {"name": "Kpotomey", "arrondissement": "Zinvié", "color": "#df6a43", "kind": "chef_lieu", "snapped": true, "snap_m": 13.5, "off_road": false, "off_road_reason": null}}, {"type": "Feature", "geometry": {"type": "Point", "coordinates": [2.351275839343485, 6.433521691269632]}, "properties": {"name": "Tokpa-Zoungo-Nord\n", "arrondissement": "Abomey-Calavi", "color": "#ce693a", "kind": "chef_lieu", "snapped": true, "snap_m": 8.1, "off_road": false, "off_road_reason": null}}, {"type": "Feature", "geometry": {"type": "Point", "coordinates": [2.454466471829938, 6.368392216098378]}, "properties": {"name": "Sodjatinmè-Centre", "arrondissement": "4ème Arrondissement", "color": "#4ed5a8", "kind": "chef_lieu", "snapped": true, "snap_m": 5.1, "off_road": false, "off_road_reason": null}}, {"type": "Feature", "geometry": {"type": "Point", "coordinates": [2.468061872023426, 6.376987570849822]}, "properties": {"name": "Avotrou-Gbègo", "arrondissement": "1er Arrondissement", "color": "#dbdd4d", "kind": "chef_lieu", "snapped": true, "snap_m": 11.9, "off_road": false, "off_road_reason": null}}, {"type": "Feature", "geometry": {"type": "Point", "coordinates": [2.339957899242292, 6.671214393633209]}, "properties": {"name": "Kpaviédja", "arrondissement": "Kpanroun", "color": "#cc9544", "kind": "chef_lieu", "snapped": true, "snap_m": 5.3, "off_road": false, "off_road_reason": null}}, {"type": "Feature", "geometry": {"type": "Point", "coordinates": [2.453548558527831, 6.391840150078056]}, "properties": {"name": "Gankpodo", "arrondissement": "2ème Arrondissement", "color": "#43d4ca", "kind": "chef_lieu", "snapped": true, "snap_m": 16.7, "off_road": false, "off_road_reason": null}}, {"type": "Feature", "geometry": {"type": "Point", "coordinates": [2.356809297572599, 6.613795608366468]}, "properties": {"name": "Zinvié-Fandji", "arrondissement": "Zinvié", "color": "#53dc41", "kind": "chef_lieu", "snapped": true, "snap_m": 8.9, "off_road": false, "off_road_reason": null}}, {"type": "Feature", "geometry": {"type": "Point", "coordinates": [2.337084069255347, 6.376257195705525]}, "properties": {"name": "Fignonhou\n", "arrondissement": "Godomey", "color": "#ca7f39", "kind": "chef_lieu", "snapped": true, "snap_m": 15.1, "off_road": false, "off_road_reason": null}}, {"type": "Feature", "geometry": {"type": "Point", "coordinates": [2.386426603165992, 6.594872421593815]}, "properties": {"name": "Gbodjè", "arrondissement": "Zinvié", "color": "#4cd288", "kind": "chef_lieu", "snapped": false, "snap_m": null, "off_road": true, "off_road_reason": "no road within 200 m"}}, {"type": "Feature", "geometry": {"type": "Point", "coordinates": [2.259279273465978, 6.424668003694718]}, "properties": {"name": "Adovié", "arrondissement": "Hêvié", "color": "#c24bda", "kind": "chef_lieu", "snapped": true, "snap_m": 6.5, "off_road": false, "off_road_reason": null}}, {"type": "Feature", "geometry": {"type": "Point", "coordinates": [2.423210730925661, 6.366379592757044]}, "properties": {"name": "Gbènan", "arrondissement": "7ème Arrondissement", "color": "#b042c8", "kind": "chef_lieu", "snapped": true, "snap_m": 5.3, "off_road": false, "off_road_reason": null}}, {"type": "Feature", "geometry": {"type": "Point", "coordinates": [2.422413041478412, 6.36378721166743]}, "properties": {"name": "Gbèdomidji", "arrondissement": "7ème Arrondissement", "color": "#4dd041", "kind": "chef_lieu", "snapped": true, "snap_m": 2.2, "off_road": false, "off_road_reason": null}}, {"type": "Feature", "geometry": {"type": "Point", "coordinates": [2.324585126294177, 6.537863873104675]}, "properties": {"name": "Domey-Gbo", "arrondissement": "Golo-Djigbé", "color": "#c6d840", "kind": "chef_lieu", "snapped": true, "snap_m": 10.2, "off_road": false, "off_road_reason": null}}, {"type": "Feature", "geometry": {"type": "Point", "coordinates": [2.374064246818966, 6.361019990897453]}, "properties": {"name": "Adjaha-Cité", "arrondissement": "13ème Arrondissement", "color": "#4bc695", "kind": "chef_lieu", "snapped": true, "snap_m": 8.7, "off_road": false, "off_road_reason": null}}, {"type": "Feature", "geometry": {"type": "Point", "coordinates": [2.36039988279798, 6.358109760230045]}, "properties": {"name": "Fidjrossè-Kpota", "arrondissement": "12ème Arrondissement", "color": "#53ce4b", "kind": "chef_lieu", "snapped": true, "snap_m": 12.6, "off_road": false, "off_road_reason": null}}, {"type": "Feature", "geometry": {"type": "Point", "coordinates": [2.404293531244689, 6.356653787616432]}, "properties": {"name": "Cadjèhoun-Aupiais", "arrondissement": "12ème Arrondissement", "color": "#d6c34a", "kind": "chef_lieu", "snapped": true, "snap_m": 6.1, "off_road": false, "off_road_reason": null}}, {"type": "Feature", "geometry": {"type": "Point", "coordinates": [2.342289242130796, 6.389164817034996]}, "properties": {"name": "Aïmèvo\n", "arrondissement": "Godomey", "color": "#49deaa", "kind": "chef_lieu", "snapped": true, "snap_m": 12.5, "off_road": false, "off_road_reason": null}}, {"type": "Feature", "geometry": {"type": "Point", "coordinates": [2.424858246359997, 6.379547849397231]}, "properties": {"name": "Aïdjèdo", "arrondissement": "6ème Arrondissement", "color": "#cd3fc8", "kind": "chef_lieu", "snapped": true, "snap_m": 7.5, "off_road": false, "off_road_reason": null}}, {"type": "Feature", "geometry": {"type": "Point", "coordinates": [2.388788719919658, 6.366179034611105]}, "properties": {"name": "Missité", "arrondissement": "13ème Arrondissement", "color": "#d43e52", "kind": "chef_lieu", "snapped": true, "snap_m": 6.4, "off_road": false, "off_road_reason": null}}, {"type": "Feature", "geometry": {"type": "Point", "coordinates": [2.472211212000099, 6.382264395832571]}, "properties": {"name": "Avotrou-Aïmonlonfidé", "arrondissement": "1er Arrondissement", "color": "#53dcd3", "kind": "chef_lieu", "snapped": true, "snap_m": 2.4, "off_road": false, "off_road_reason": null}}, {"type": "Feature", "geometry": {"type": "Point", "coordinates": [2.404149994218516, 6.361853391924255]}, "properties": {"name": "Cadjèhoun-Gare", "arrondissement": "12ème Arrondissement", "color": "#49cb78", "kind": "chef_lieu", "snapped": true, "snap_m": 7.5, "off_road": false, "off_road_reason": null}}, {"type": "Feature", "geometry": {"type": "Point", "coordinates": [2.440328254490017, 6.385717599378378]}, "properties": {"name": "Adôgléta", "arrondissement": "3ème Arrondissement", "color": "#90d348", "kind": "chef_lieu", "snapped": true, "snap_m": 11.0, "off_road": false, "off_road_reason": null}}, {"type": "Feature", "geometry": {"type": "Point", "coordinates": [2.42433571986854, 6.382916483331917]}, "properties": {"name": "Ahouansouri-Agata", "arrondissement": "6ème Arrondissement", "color": "#dbcc47", "kind": "chef_lieu", "snapped": true, "snap_m": 7.0, "off_road": false, "off_road_reason": null}}, {"type": "Feature", "geometry": {"type": "Point", "coordinates": [2.31506106908709, 6.507109056133443]}, "properties": {"name": "Kansounkpa", "arrondissement": "Abomey-Calavi", "color": "#c93e91", "kind": "chef_lieu", "snapped": true, "snap_m": 6.2, "off_road": false, "off_road_reason": null}}, {"type": "Feature", "geometry": {"type": "Point", "coordinates": [2.35645028782525, 6.384276044890476]}, "properties": {"name": "Agla-Akplomey", "arrondissement": "13ème Arrondissement", "color": "#d1423d", "kind": "chef_lieu", "snapped": true, "snap_m": 4.1, "off_road": false, "off_road_reason": null}}, {"type": "Feature", "geometry": {"type": "Point", "coordinates": [2.45705484311077, 6.372437269506234]}, "properties": {"name": "Irédé", "arrondissement": "2ème Arrondissement", "color": "#d951c7", "kind": "chef_lieu", "snapped": true, "snap_m": 6.9, "off_road": false, "off_road_reason": null}}, {"type": "Feature", "geometry": {"type": "Point", "coordinates": [2.305493645637789, 6.405839478370337]}, "properties": {"name": "Womey-Centre\n", "arrondissement": "Godomey", "color": "#47c74e", "kind": "chef_lieu", "snapped": true, "snap_m": 20.6, "off_road": false, "off_road_reason": null}}, {"type": "Feature", "geometry": {"type": "Point", "coordinates": [2.442307661466128, 6.367694222429447]}, "properties": {"name": "Dédokpo", "arrondissement": "4ème Arrondissement", "color": "#cf4d46", "kind": "chef_lieu", "snapped": true, "snap_m": 17.8, "off_road": false, "off_road_reason": null}}, {"type": "Feature", "geometry": {"type": "Point", "coordinates": [2.294956289943732, 6.40340131281441]}, "properties": {"name": "Sodo\n", "arrondissement": "Godomey", "color": "#d77846", "kind": "chef_lieu", "snapped": true, "snap_m": 7.3, "off_road": false, "off_road_reason": null}}, {"type": "Feature", "geometry": {"type": "Point", "coordinates": [2.439282012136696, 6.37717477958463]}, "properties": {"name": "Kpankpan", "arrondissement": "3ème Arrondissement", "color": "#49df44", "kind": "chef_lieu", "snapped": true, "snap_m": 5.2, "off_road": false, "off_road_reason": null}}, {"type": "Feature", "geometry": {"type": "Point", "coordinates": [2.472004316594913, 6.367756095057556]}, "properties": {"name": "Tanto", "arrondissement": "1er Arrondissement", "color": "#b3cd3b", "kind": "chef_lieu", "snapped": true, "snap_m": 7.4, "off_road": false, "off_road_reason": null}}, {"type": "Feature", "geometry": {"type": "Point", "coordinates": [2.406858418732843, 6.369169355073549]}, "properties": {"name": "Vodjè-Allobatin", "arrondissement": "11ème Arrondissement", "color": "#4fd56c", "kind": "chef_lieu", "snapped": true, "snap_m": 9.8, "off_road": false, "off_road_reason": null}}, {"type": "Feature", "geometry": {"type": "Point", "coordinates": [2.407532099820587, 6.353325686444661]}, "properties": {"name": "Ahouanlèko", "arrondissement": "12ème Arrondissement", "color": "#4fdd80", "kind": "chef_lieu", "snapped": true, "snap_m": 7.8, "off_road": false, "off_road_reason": null}}, {"type": "Feature", "geometry": {"type": "Point", "coordinates": [2.304305311789565, 6.551810220355878]}, "properties": {"name": "Zèkanmey", "arrondissement": "Golo-Djigbé", "color": "#cc8a45", "kind": "chef_lieu", "snapped": true, "snap_m": 3.3, "off_road": false, "off_road_reason": null}}, {"type": "Feature", "geometry": {"type": "Point", "coordinates": [2.457250665167441, 6.379688558523469]}, "properties": {"name": "Sènadé", "arrondissement": "2ème Arrondissement", "color": "#d38544", "kind": "chef_lieu", "snapped": true, "snap_m": 2.9, "off_road": false, "off_road_reason": null}}, {"type": "Feature", "geometry": {"type": "Point", "coordinates": [2.407534246817678, 6.377384298417058]}, "properties": {"name": "Agontinkon", "arrondissement": "8ème Arrondissement", "color": "#db5a43", "kind": "chef_lieu", "snapped": true, "snap_m": 4.9, "off_road": false, "off_road_reason": null}}, {"type": "Feature", "geometry": {"type": "Point", "coordinates": [2.472148906799447, 6.388403664721264]}, "properties": {"name": "Yénawa-Daho", "arrondissement": "2ème Arrondissement", "color": "#ca3a84", "kind": "chef_lieu", "snapped": true, "snap_m": 15.6, "off_road": false, "off_road_reason": null}}, {"type": "Feature", "geometry": {"type": "Point", "coordinates": [2.475942714536939, 6.376949160761281]}, "properties": {"name": "Avotrou-Houézèkomè", "arrondissement": "1er Arrondissement", "color": "#c0d24e", "kind": "chef_lieu", "snapped": true, "snap_m": 11.0, "off_road": false, "off_road_reason": null}}, {"type": "Feature", "geometry": {"type": "Point", "coordinates": [2.373728793044497, 6.378693091527042]}, "properties": {"name": "Ahogbohoué-Cité-De-l'Expérience", "arrondissement": "13ème Arrondissement", "color": "#4ddac4", "kind": "chef_lieu", "snapped": true, "snap_m": 25.5, "off_road": false, "off_road_reason": null}}, {"type": "Feature", "geometry": {"type": "Point", "coordinates": [2.321813583150896, 6.387999933976394]}, "properties": {"name": "Atrokpo-Codji", "arrondissement": "Godomey", "color": "#43c853", "kind": "chef_lieu", "snapped": true, "snap_m": 11.4, "off_road": false, "off_road_reason": null}}, {"type": "Feature", "geometry": {"type": "Point", "coordinates": [2.322809624994197, 6.585160476042517]}, "properties": {"name": "Gbodjoko", "arrondissement": "Zinvié", "color": "#42d0c2", "kind": "chef_lieu", "snapped": true, "snap_m": 12.6, "off_road": false, "off_road_reason": null}}, {"type": "Feature", "geometry": {"type": "Point", "coordinates": [2.42190006434286, 6.377219054207516]}, "properties": {"name": "Aïdjèdo-Ahito", "arrondissement": "6ème Arrondissement", "color": "#d841a1", "kind": "chef_lieu", "snapped": true, "snap_m": 3.5, "off_road": false, "off_road_reason": null}}, {"type": "Feature", "geometry": {"type": "Point", "coordinates": [2.274507813551664, 6.42038238877856]}, "properties": {"name": "Ahouato", "arrondissement": "Ouèdo", "color": "#7ae040", "kind": "chef_lieu", "snapped": true, "snap_m": 17.8, "off_road": false, "off_road_reason": null}}, {"type": "Feature", "geometry": {"type": "Point", "coordinates": [2.440702402008151, 6.352468634302518]}, "properties": {"name": "Xwlacôdji-Plage", "arrondissement": "5ème Arrondissement", "color": "#ce624c", "kind": "chef_lieu", "snapped": true, "snap_m": 6.9, "off_road": false, "off_road_reason": null}}, {"type": "Feature", "geometry": {"type": "Point", "coordinates": [2.409716881879183, 6.367585958768227]}, "properties": {"name": "Gbégamey-Dodo-Ayidjè", "arrondissement": "11ème Arrondissement", "color": "#d64b9a", "kind": "chef_lieu", "snapped": true, "snap_m": 4.8, "off_road": false, "off_road_reason": null}}, {"type": "Feature", "geometry": {"type": "Point", "coordinates": [2.440823900978928, 6.38868418666766]}, "properties": {"name": "Hlacômey", "arrondissement": "3ème Arrondissement", "color": "#de4a5e", "kind": "chef_lieu", "snapped": true, "snap_m": 5.2, "off_road": false, "off_road_reason": null}}, {"type": "Feature", "geometry": {"type": "Point", "coordinates": [2.338777358968258, 6.68715770413999]}, "properties": {"name": "Anagbo", "arrondissement": "Kpanroun", "color": "#bc41cc", "kind": "chef_lieu", "snapped": true, "snap_m": 2.6, "off_road": false, "off_road_reason": null}}, {"type": "Feature", "geometry": {"type": "Point", "coordinates": [2.427883345156602, 6.356250877695007]}, "properties": {"name": "Zongo-Nima", "arrondissement": "5ème Arrondissement", "color": "#d440ad", "kind": "chef_lieu", "snapped": true, "snap_m": 10.6, "off_road": false, "off_road_reason": null}}, {"type": "Feature", "geometry": {"type": "Point", "coordinates": [2.363088585898427, 6.515327454173367]}, "properties": {"name": "Misséssinto", "arrondissement": "Akassato", "color": "#dc3e51", "kind": "chef_lieu", "snapped": true, "snap_m": 4.3, "off_road": false, "off_road_reason": null}}, {"type": "Feature", "geometry": {"type": "Point", "coordinates": [2.337515666765913, 6.479119226062662]}, "properties": {"name": "Cité-les-Palmiers\n", "arrondissement": "Abomey-Calavi", "color": "#4aca79", "kind": "chef_lieu", "snapped": true, "snap_m": 16.5, "off_road": false, "off_road_reason": null}}, {"type": "Feature", "geometry": {"type": "Point", "coordinates": [2.441545517708419, 6.393526932430639]}, "properties": {"name": "Agbatô", "arrondissement": "3ème Arrondissement", "color": "#87d24a", "kind": "chef_lieu", "snapped": true, "snap_m": 90.0, "off_road": false, "off_road_reason": null}}, {"type": "Feature", "geometry": {"type": "Point", "coordinates": [2.356155892097402, 6.653408013068795]}, "properties": {"name": "Kpé", "arrondissement": "Kpanroun", "color": "#49dad5", "kind": "chef_lieu", "snapped": true, "snap_m": 3.7, "off_road": false, "off_road_reason": null}}, {"type": "Feature", "geometry": {"type": "Point", "coordinates": [2.424036711748659, 6.352603545600073]}, "properties": {"name": "Zongo-Ehuzu", "arrondissement": "5ème Arrondissement", "color": "#8dc93f", "kind": "chef_lieu", "snapped": true, "snap_m": 3.3, "off_road": false, "off_road_reason": null}}, {"type": "Feature", "geometry": {"type": "Point", "coordinates": [2.427552872717358, 6.387585271283132]}, "properties": {"name": "Ahouansori-Towéta", "arrondissement": "6ème Arrondissement", "color": "#d1713e", "kind": "chef_lieu", "snapped": true, "snap_m": 83.1, "off_road": false, "off_road_reason": null}}, {"type": "Feature", "geometry": {"type": "Point", "coordinates": [2.308475621325271, 6.531935855343063]}, "properties": {"name": "Agongbé", "arrondissement": "Golo-Djigbé", "color": "#4ad93d", "kind": "chef_lieu", "snapped": true, "snap_m": 67.5, "off_road": false, "off_road_reason": null}}, {"type": "Feature", "geometry": {"type": "Point", "coordinates": [2.48957796820289, 6.364730087893121]}, "properties": {"name": "Tokplégbé", "arrondissement": "1er Arrondissement", "color": "#c74886", "kind": "chef_lieu", "snapped": true, "snap_m": 2.9, "off_road": false, "off_road_reason": null}}, {"type": "Feature", "geometry": {"type": "Point", "coordinates": [2.237041714678024, 6.423286918650279]}, "properties": {"name": "Hounzévié\n", "arrondissement": "Hêvié", "color": "#cf9b48", "kind": "chef_lieu", "snapped": true, "snap_m": 10.4, "off_road": false, "off_road_reason": null}}, {"type": "Feature", "geometry": {"type": "Point", "coordinates": [2.370617003655931, 6.35769307953833]}, "properties": {"name": "Fidjrossè-Centre", "arrondissement": "12ème Arrondissement", "color": "#d77c47", "kind": "chef_lieu", "snapped": true, "snap_m": 9.7, "off_road": false, "off_road_reason": null}}, {"type": "Feature", "geometry": {"type": "Point", "coordinates": [2.459956549025544, 6.370000904041615]}, "properties": {"name": "Sodjatinmè-Est", "arrondissement": "4ème Arrondissement", "color": "#d446df", "kind": "chef_lieu", "snapped": true, "snap_m": 2.7, "off_road": false, "off_road_reason": null}}, {"type": "Feature", "geometry": {"type": "Point", "coordinates": [2.279968131120424, 6.479040600159075]}, "properties": {"name": "Adjagbo", "arrondissement": "Ouèdo", "color": "#cd3d8f", "kind": "chef_lieu", "snapped": true, "snap_m": 11.9, "off_road": false, "off_road_reason": null}}, {"type": "Feature", "geometry": {"type": "Point", "coordinates": [2.408136051382299, 6.364892137068566]}, "properties": {"name": "Gbégamey-Ahito", "arrondissement": "11ème Arrondissement", "color": "#3bd54b", "kind": "chef_lieu", "snapped": true, "snap_m": 5.8, "off_road": false, "off_road_reason": null}}, {"type": "Feature", "geometry": {"type": "Point", "coordinates": [2.478232682918784, 6.368269807213661]}, "properties": {"name": "Dandji", "arrondissement": "1er Arrondissement", "color": "#c150dd", "kind": "chef_lieu", "snapped": true, "snap_m": 6.4, "off_road": false, "off_road_reason": null}}, {"type": "Feature", "geometry": {"type": "Point", "coordinates": [2.340681771621278, 6.372826762593936]}, "properties": {"name": "Godomey-N'Gbèho", "arrondissement": "Godomey", "color": "#cb7746", "kind": "chef_lieu", "snapped": true, "snap_m": 4.0, "off_road": false, "off_road_reason": null}}, {"type": "Feature", "geometry": {"type": "Point", "coordinates": [2.336395432670797, 6.497410210573912]}, "properties": {"name": "Zoundja\n", "arrondissement": "Abomey-Calavi", "color": "#8ad345", "kind": "chef_lieu", "snapped": true, "snap_m": 11.0, "off_road": false, "off_road_reason": null}}, {"type": "Feature", "geometry": {"type": "Point", "coordinates": [2.442342934579337, 6.364563039358073]}, "properties": {"name": "Abokicodji-Lagune", "arrondissement": "4ème Arrondissement", "color": "#44db71", "kind": "chef_lieu", "snapped": true, "snap_m": 27.9, "off_road": false, "off_road_reason": null}}, {"type": "Feature", "geometry": {"type": "Point", "coordinates": [2.410203672119639, 6.38496497297377]}, "properties": {"name": "Mèdédjro", "arrondissement": "8ème Arrondissement", "color": "#c9643b", "kind": "chef_lieu", "snapped": true, "snap_m": 12.7, "off_road": false, "off_road_reason": null}}, {"type": "Feature", "geometry": {"type": "Point", "coordinates": [2.390598635178596, 6.392713160062153]}, "properties": {"name": "Zogbo", "arrondissement": "9ème Arrondissement", "color": "#88d14f", "kind": "chef_lieu", "snapped": true, "snap_m": 2.2, "off_road": false, "off_road_reason": null}}, {"type": "Feature", "geometry": {"type": "Point", "coordinates": [2.42536746152798, 6.363624629555242]}, "properties": {"name": "Mifongou", "arrondissement": "5ème Arrondissement", "color": "#d96c4e", "kind": "chef_lieu", "snapped": true, "snap_m": 14.1, "off_road": false, "off_road_reason": null}}, {"type": "Feature", "geometry": {"type": "Point", "coordinates": [2.409801846269849, 6.371445382568357]}, "properties": {"name": "Gbégamey-Gbagoudo", "arrondissement": "11ème Arrondissement", "color": "#bf45c8", "kind": "chef_lieu", "snapped": true, "snap_m": 13.6, "off_road": false, "off_road_reason": null}}, {"type": "Feature", "geometry": {"type": "Point", "coordinates": [2.372758736668154, 6.381823623459121]}, "properties": {"name": "Agla-Petit-Château", "arrondissement": "13ème Arrondissement", "color": "#44d079", "kind": "chef_lieu", "snapped": true, "snap_m": 6.7, "off_road": false, "off_road_reason": null}}, {"type": "Feature", "geometry": {"type": "Point", "coordinates": [2.392248845494169, 6.386138179156926]}, "properties": {"name": "Midédji", "arrondissement": "10ème Arrondissement", "color": "#43d748", "kind": "chef_lieu", "snapped": true, "snap_m": 2.3, "off_road": false, "off_road_reason": null}}, {"type": "Feature", "geometry": {"type": "Point", "coordinates": [2.391291312919098, 6.366684522755474]}, "properties": {"name": "Houénoussou", "arrondissement": "13ème Arrondissement", "color": "#dfb041", "kind": "chef_lieu", "snapped": true, "snap_m": 5.3, "off_road": false, "off_road_reason": null}}, {"type": "Feature", "geometry": {"type": "Point", "coordinates": [2.3262564549981, 6.450653681938154]}, "properties": {"name": "Aïdégnon\n", "arrondissement": "Togba", "color": "#c34dce", "kind": "chef_lieu", "snapped": true, "snap_m": 25.7, "off_road": false, "off_road_reason": null}}, {"type": "Feature", "geometry": {"type": "Point", "coordinates": [2.292516944311811, 6.380856682516127]}, "properties": {"name": "Zounga\n", "arrondissement": "Godomey", "color": "#4dd68f", "kind": "chef_lieu", "snapped": true, "snap_m": 11.5, "off_road": false, "off_road_reason": null}}, {"type": "Feature", "geometry": {"type": "Point", "coordinates": [2.324371011192158, 6.373424539923127]}, "properties": {"name": "Abikouholi\n", "arrondissement": "Godomey", "color": "#bcde4c", "kind": "chef_lieu", "snapped": true, "snap_m": 9.0, "off_road": false, "off_road_reason": null}}, {"type": "Feature", "geometry": {"type": "Point", "coordinates": [2.330312218138574, 6.354731938914918]}, "properties": {"name": "Togbin-Fandji", "arrondissement": "Godomey", "color": "#42cc67", "kind": "chef_lieu", "snapped": true, "snap_m": 4.6, "off_road": false, "off_road_reason": null}}, {"type": "Feature", "geometry": {"type": "Point", "coordinates": [2.425342688161394, 6.360140776698062]}, "properties": {"name": "Gbéto", "arrondissement": "5ème Arrondissement", "color": "#d46b41", "kind": "chef_lieu", "snapped": true, "snap_m": 6.7, "off_road": false, "off_road_reason": null}}, {"type": "Feature", "geometry": {"type": "Point", "coordinates": [2.341502448001384, 6.404702643675566]}, "properties": {"name": "Sèdomey", "arrondissement": "Godomey", "color": "#dc4045", "kind": "chef_lieu", "snapped": true, "snap_m": 9.1, "off_road": false, "off_road_reason": null}}, {"type": "Feature", "geometry": {"type": "Point", "coordinates": [2.392703474130166, 6.684058728636733]}, "properties": {"name": "Bozoun", "arrondissement": "Kpanroun", "color": "#4cca6f", "kind": "chef_lieu", "snapped": true, "snap_m": 12.9, "off_road": false, "off_road_reason": null}}, {"type": "Feature", "geometry": {"type": "Point", "coordinates": [2.40938903849366, 6.375051553367871]}, "properties": {"name": "Agbondjèdo", "arrondissement": "8ème Arrondissement", "color": "#d2564b", "kind": "chef_lieu", "snapped": true, "snap_m": 11.5, "off_road": false, "off_road_reason": null}}, {"type": "Feature", "geometry": {"type": "Point", "coordinates": [2.459257962851995, 6.36291986206149]}, "properties": {"name": "Fifadji-Houto (Jak)", "arrondissement": "4ème Arrondissement", "color": "#5dda4a", "kind": "chef_lieu", "snapped": true, "snap_m": 10.7, "off_road": false, "off_road_reason": null}}, {"type": "Feature", "geometry": {"type": "Point", "coordinates": [2.391582450472842, 6.381106888687805]}, "properties": {"name": "Missogbé", "arrondissement": "10ème Arrondissement", "color": "#60c841", "kind": "chef_lieu", "snapped": true, "snap_m": 5.4, "off_road": false, "off_road_reason": null}}, {"type": "Feature", "geometry": {"type": "Point", "coordinates": [2.359418029075937, 6.459125671141735]}, "properties": {"name": "Agamandin", "arrondissement": "Abomey-Calavi", "color": "#d04077", "kind": "chef_lieu", "snapped": true, "snap_m": 4.5, "off_road": false, "off_road_reason": null}}, {"type": "Feature", "geometry": {"type": "Point", "coordinates": [2.427749770137821, 6.382620607263776]}, "properties": {"name": "Aïdjèdo-Gbègo", "arrondissement": "6ème Arrondissement", "color": "#d8673e", "kind": "chef_lieu", "snapped": true, "snap_m": 5.1, "off_road": false, "off_road_reason": null}}, {"type": "Feature", "geometry": {"type": "Point", "coordinates": [2.425647133995281, 6.375398793051792]}, "properties": {"name": "Jéricho-Nord", "arrondissement": "6ème Arrondissement", "color": "#4ac7a3", "kind": "chef_lieu", "snapped": true, "snap_m": 12.7, "off_road": false, "off_road_reason": null}}, {"type": "Feature", "geometry": {"type": "Point", "coordinates": [2.443651024740626, 6.370644768763935]}, "properties": {"name": "Misséssin", "arrondissement": "4ème Arrondissement", "color": "#49cf57", "kind": "chef_lieu", "snapped": true, "snap_m": 24.5, "off_road": false, "off_road_reason": null}}, {"type": "Feature", "geometry": {"type": "Point", "coordinates": [2.360020739305281, 6.468530734207171]}, "properties": {"name": "Gbodjo", "arrondissement": "Abomey-Calavi", "color": "#a9d648", "kind": "chef_lieu", "snapped": true, "snap_m": 10.9, "off_road": false, "off_road_reason": null}}, {"type": "Feature", "geometry": {"type": "Point", "coordinates": [2.364254124197146, 6.392221838386909]}, "properties": {"name": "Kindonou", "arrondissement": "9ème Arrondissement", "color": "#59de47", "kind": "chef_lieu", "snapped": true, "snap_m": 6.3, "off_road": false, "off_road_reason": null}}, {"type": "Feature", "geometry": {"type": "Point", "coordinates": [2.313502659171219, 6.410203100045705]}, "properties": {"name": "Yénandjro\n", "arrondissement": "Godomey", "color": "#8acd3e", "kind": "chef_lieu", "snapped": true, "snap_m": 3.7, "off_road": false, "off_road_reason": null}}, {"type": "Feature", "geometry": {"type": "Point", "coordinates": [2.342089692442799, 6.630822551355818]}, "properties": {"name": "Houégoudo\n", "arrondissement": "Zinvié", "color": "#86d53d", "kind": "chef_lieu", "snapped": true, "snap_m": 5.3, "off_road": false, "off_road_reason": null}}, {"type": "Feature", "geometry": {"type": "Point", "coordinates": [2.340790672921356, 6.380663796391585]}, "properties": {"name": "Dénou\n", "arrondissement": "Godomey", "color": "#dd5452", "kind": "chef_lieu", "snapped": true, "snap_m": 27.8, "off_road": false, "off_road_reason": null}}, {"type": "Feature", "geometry": {"type": "Point", "coordinates": [2.374768165719667, 6.687701726279517]}, "properties": {"name": "Djigbo", "arrondissement": "Kpanroun", "color": "#48cb5b", "kind": "chef_lieu", "snapped": true, "snap_m": 11.1, "off_road": false, "off_road_reason": null}}, {"type": "Feature", "geometry": {"type": "Point", "coordinates": [2.459342678466965, 6.388456395269925]}, "properties": {"name": "Djédjé-Layé", "arrondissement": "2ème Arrondissement", "color": "#60d347", "kind": "chef_lieu", "snapped": true, "snap_m": 12.6, "off_road": false, "off_road_reason": null}}, {"type": "Feature", "geometry": {"type": "Point", "coordinates": [2.307905345318263, 6.374946401160657]}, "properties": {"name": "Hêdomè\n", "arrondissement": "Godomey", "color": "#db4648", "kind": "chef_lieu", "snapped": true, "snap_m": 5.9, "off_road": false, "off_road_reason": null}}, {"type": "Feature", "geometry": {"type": "Point", "coordinates": [2.459330154676711, 6.382285778103435]}, "properties": {"name": "Ahouassa", "arrondissement": "2ème Arrondissement", "color": "#3dc973", "kind": "chef_lieu", "snapped": true, "snap_m": 10.2, "off_road": false, "off_road_reason": null}}, {"type": "Feature", "geometry": {"type": "Point", "coordinates": [2.347935999444408, 6.622385699198738]}, "properties": {"name": "Zinvié-Zounmè", "arrondissement": "Zinvié", "color": "#ac3bd1", "kind": "chef_lieu", "snapped": true, "snap_m": 5.2, "off_road": false, "off_road_reason": null}}, {"type": "Feature", "geometry": {"type": "Point", "coordinates": [2.444560366968681, 6.377283366925354]}, "properties": {"name": "Midombo", "arrondissement": "3ème Arrondissement", "color": "#50d9b9", "kind": "chef_lieu", "snapped": true, "snap_m": 5.0, "off_road": false, "off_road_reason": null}}, {"type": "Feature", "geometry": {"type": "Point", "coordinates": [2.297066350691609, 6.562397752699697]}, "properties": {"name": "Adjamè\n", "arrondissement": "Golo-Djigbé", "color": "#c7a146", "kind": "chef_lieu", "snapped": true, "snap_m": 6.7, "off_road": false, "off_road_reason": null}}, {"type": "Feature", "geometry": {"type": "Point", "coordinates": [2.42814583008818, 6.391350335619639]}, "properties": {"name": "Ladji", "arrondissement": "6ème Arrondissement", "color": "#58cf45", "kind": "chef_lieu", "snapped": true, "snap_m": 0.5, "off_road": false, "off_road_reason": null}}, {"type": "Feature", "geometry": {"type": "Point", "coordinates": [2.4595500462822, 6.375688860240378]}, "properties": {"name": "Sènadé-Sèkon", "arrondissement": "2ème Arrondissement", "color": "#d74484", "kind": "chef_lieu", "snapped": true, "snap_m": 4.0, "off_road": false, "off_road_reason": null}}, {"type": "Feature", "geometry": {"type": "Point", "coordinates": [2.375769637656162, 6.668193210172154]}, "properties": {"name": "Avagbé", "arrondissement": "Kpanroun", "color": "#b0df43", "kind": "chef_lieu", "snapped": true, "snap_m": 18.0, "off_road": false, "off_road_reason": null}}, {"type": "Feature", "geometry": {"type": "Point", "coordinates": [2.326907267014247, 6.409461848061406]}, "properties": {"name": "Assrossa\n", "arrondissement": "Godomey", "color": "#ce953a", "kind": "chef_lieu", "snapped": true, "snap_m": 9.3, "off_road": false, "off_road_reason": null}}, {"type": "Feature", "geometry": {"type": "Point", "coordinates": [2.409550474170466, 6.392752927176992]}, "properties": {"name": "Vossa", "arrondissement": "6ème Arrondissement", "color": "#55d54e", "kind": "chef_lieu", "snapped": true, "snap_m": 5.7, "off_road": false, "off_road_reason": null}}, {"type": "Feature", "geometry": {"type": "Point", "coordinates": [2.312139157795279, 6.558756425363121]}, "properties": {"name": "Yêkon-Aga", "arrondissement": "Golo-Djigbé", "color": "#4ddd57", "kind": "chef_lieu", "snapped": true, "snap_m": 4.8, "off_road": false, "off_road_reason": null}}, {"type": "Feature", "geometry": {"type": "Point", "coordinates": [2.364810813185319, 6.545052684455164]}, "properties": {"name": "Agassa-Godomey", "arrondissement": "Akassato", "color": "#7acc44", "kind": "chef_lieu", "snapped": true, "snap_m": 8.5, "off_road": false, "off_road_reason": null}}, {"type": "Feature", "geometry": {"type": "Point", "coordinates": [2.26706983065117, 6.466030642035745]}, "properties": {"name": "Dessato\n", "arrondissement": "Ouèdo", "color": "#43d49e", "kind": "chef_lieu", "snapped": true, "snap_m": 11.1, "off_road": false, "off_road_reason": null}}, {"type": "Feature", "geometry": {"type": "Point", "coordinates": [2.442458753685009, 6.371911800796783]}, "properties": {"name": "Gbénonkpô", "arrondissement": "3ème Arrondissement", "color": "#dc8c41", "kind": "chef_lieu", "snapped": true, "snap_m": 11.2, "off_road": false, "off_road_reason": null}}, {"type": "Feature", "geometry": {"type": "Point", "coordinates": [2.444523992731232, 6.374870865149802]}, "properties": {"name": "Adjégounlè", "arrondissement": "3ème Arrondissement", "color": "#7cca39", "kind": "chef_lieu", "snapped": true, "snap_m": 10.7, "off_road": false, "off_road_reason": null}}, {"type": "Feature", "geometry": {"type": "Point", "coordinates": [2.34243301565304, 6.391982107294479]}, "properties": {"name": "Salamey", "arrondissement": "Godomey", "color": "#7dd24c", "kind": "chef_lieu", "snapped": true, "snap_m": 11.0, "off_road": false, "off_road_reason": null}}, {"type": "Feature", "geometry": {"type": "Point", "coordinates": [2.428167398149961, 6.377381017474325]}, "properties": {"name": "Aïdjèdo-Vignon", "arrondissement": "6ème Arrondissement", "color": "#4bda71", "kind": "chef_lieu", "snapped": true, "snap_m": 11.5, "off_road": false, "off_road_reason": null}}, {"type": "Feature", "geometry": {"type": "Point", "coordinates": [2.444604297164236, 6.382394066181925]}, "properties": {"name": "Sègbèya-Sud", "arrondissement": "3ème Arrondissement", "color": "#42c8b0", "kind": "chef_lieu", "snapped": true, "snap_m": 8.1, "off_road": false, "off_road_reason": null}}, {"type": "Feature", "geometry": {"type": "Point", "coordinates": [2.429022229467125, 6.359771307551789]}, "properties": {"name": "Dota", "arrondissement": "5ème Arrondissement", "color": "#d0c441", "kind": "chef_lieu", "snapped": true, "snap_m": 6.2, "off_road": false, "off_road_reason": null}}, {"type": "Feature", "geometry": {"type": "Point", "coordinates": [2.296214491987767, 6.387333512261288]}, "properties": {"name": "Fandji\n", "arrondissement": "Godomey", "color": "#bad840", "kind": "chef_lieu", "snapped": true, "snap_m": 12.4, "off_road": false, "off_road_reason": null}}, {"type": "Feature", "geometry": {"type": "Point", "coordinates": [2.444684472244962, 6.388634111398964]}, "properties": {"name": "Sègbèya-Nord", "arrondissement": "3ème Arrondissement", "color": "#c64b87", "kind": "chef_lieu", "snapped": true, "snap_m": 6.7, "off_road": false, "off_road_reason": null}}, {"type": "Feature", "geometry": {"type": "Point", "coordinates": [2.326013037459919, 6.427859223654188]}, "properties": {"name": "Tankpè-Tanmè", "arrondissement": "Togba", "color": "#ce4b74", "kind": "chef_lieu", "snapped": true, "snap_m": 24.9, "off_road": false, "off_road_reason": null}}, {"type": "Feature", "geometry": {"type": "Point", "coordinates": [2.446816511855193, 6.366356059358998]}, "properties": {"name": "Abokicodji-Centre", "arrondissement": "4ème Arrondissement", "color": "#d64a76", "kind": "chef_lieu", "snapped": true, "snap_m": 6.4, "off_road": false, "off_road_reason": null}}, {"type": "Feature", "geometry": {"type": "Point", "coordinates": [2.395776219963597, 6.358596835367859]}, "properties": {"name": "Cadjèhoun-Agonga", "arrondissement": "12ème Arrondissement", "color": "#49de78", "kind": "chef_lieu", "snapped": true, "snap_m": 2.6, "off_road": false, "off_road_reason": null}}, {"type": "Feature", "geometry": {"type": "Point", "coordinates": [2.352959410789209, 6.527113315836218]}, "properties": {"name": "Adjagbo", "arrondissement": "Akassato", "color": "#cd3f8f", "kind": "chef_lieu", "snapped": true, "snap_m": 17.6, "off_road": false, "off_road_reason": null}}, {"type": "Feature", "geometry": {"type": "Point", "coordinates": [2.429471578829409, 6.371470146237361]}, "properties": {"name": "Jéricho-Sud", "arrondissement": "6ème Arrondissement", "color": "#3ed45a", "kind": "chef_lieu", "snapped": true, "snap_m": 3.2, "off_road": false, "off_road_reason": null}}, {"type": "Feature", "geometry": {"type": "Point", "coordinates": [2.429931355546123, 6.367090990215393]}, "properties": {"name": "Sèdjro-Saint-Michel", "arrondissement": "7ème Arrondissement", "color": "#dc53ca", "kind": "chef_lieu", "snapped": true, "snap_m": 2.2, "off_road": false, "off_road_reason": null}}, {"type": "Feature", "geometry": {"type": "Point", "coordinates": [2.413428460168907, 6.382152864921848]}, "properties": {"name": "Gbèdagba", "arrondissement": "8ème Arrondissement", "color": "#70cb49", "kind": "chef_lieu", "snapped": true, "snap_m": 7.9, "off_road": false, "off_road_reason": null}}, {"type": "Feature", "geometry": {"type": "Point", "coordinates": [2.480469122310768, 6.379551784385184]}, "properties": {"name": "Tchanhounkpamè", "arrondissement": "1er Arrondissement", "color": "#d38948", "kind": "chef_lieu", "snapped": true, "snap_m": 16.5, "off_road": false, "off_road_reason": null}}, {"type": "Feature", "geometry": {"type": "Point", "coordinates": [2.227346147712827, 6.417918894556844]}, "properties": {"name": "Houinmè", "arrondissement": "Hêvié", "color": "#dbd647", "kind": "chef_lieu", "snapped": true, "snap_m": 5.8, "off_road": false, "off_road_reason": null}}, {"type": "Feature", "geometry": {"type": "Point", "coordinates": [2.381251611489945, 6.363429427286174]}, "properties": {"name": "Aïbatin-Kpota", "arrondissement": "13ème Arrondissement", "color": "#c93e47", "kind": "chef_lieu", "snapped": true, "snap_m": 7.1, "off_road": false, "off_road_reason": null}}, {"type": "Feature", "geometry": {"type": "Point", "coordinates": [2.269108453387185, 6.399896323011996]}, "properties": {"name": "Sogan", "arrondissement": "Hêvié", "color": "#d1a93d", "kind": "chef_lieu", "snapped": true, "snap_m": 10.1, "off_road": false, "off_road_reason": null}}, {"type": "Feature", "geometry": {"type": "Point", "coordinates": [2.430030816406597, 6.363856443776802]}, "properties": {"name": "Gbédokpo", "arrondissement": "5ème Arrondissement", "color": "#51d9b7", "kind": "chef_lieu", "snapped": true, "snap_m": 17.2, "off_road": false, "off_road_reason": null}}, {"type": "Feature", "geometry": {"type": "Point", "coordinates": [2.347420083704914, 6.465892633120393]}, "properties": {"name": "Fandji\n", "arrondissement": "Abomey-Calavi", "color": "#aec747", "kind": "chef_lieu", "snapped": true, "snap_m": 7.5, "off_road": false, "off_road_reason": null}}, {"type": "Feature", "geometry": {"type": "Point", "coordinates": [2.311566824027805, 6.631161948504397]}, "properties": {"name": "Wawata-Todja", "arrondissement": "Zinvié", "color": "#a646cf", "kind": "chef_lieu", "snapped": true, "snap_m": 4.3, "off_road": false, "off_road_reason": null}}, {"type": "Feature", "geometry": {"type": "Point", "coordinates": [2.412135764380956, 6.369584322516841]}, "properties": {"name": "Dagbédji-Sikê", "arrondissement": "7ème Arrondissement", "color": "#67d746", "kind": "chef_lieu", "snapped": true, "snap_m": 13.1, "off_road": false, "off_road_reason": null}}, {"type": "Feature", "geometry": {"type": "Point", "coordinates": [2.345315101812016, 6.458022608002667]}, "properties": {"name": "Sèmè", "arrondissement": "Abomey-Calavi", "color": "#44df9e", "kind": "chef_lieu", "snapped": true, "snap_m": 4.1, "off_road": false, "off_road_reason": null}}, {"type": "Feature", "geometry": {"type": "Point", "coordinates": [2.41007050739592, 6.379432458452477]}, "properties": {"name": "Houéhoun", "arrondissement": "8ème Arrondissement", "color": "#cdb33b", "kind": "chef_lieu", "snapped": true, "snap_m": 3.4, "off_road": false, "off_road_reason": null}}, {"type": "Feature", "geometry": {"type": "Point", "coordinates": [2.409731318075889, 6.360589389576242]}, "properties": {"name": "Gbégamey-Mifongou", "arrondissement": "11ème Arrondissement", "color": "#4fd575", "kind": "chef_lieu", "snapped": true, "snap_m": 3.4, "off_road": false, "off_road_reason": null}}, {"type": "Feature", "geometry": {"type": "Point", "coordinates": [2.47708492485899, 6.364569924521674]}, "properties": {"name": "Finagnon", "arrondissement": "1er Arrondissement", "color": "#dd4f69", "kind": "chef_lieu", "snapped": true, "snap_m": 2.9, "off_road": false, "off_road_reason": null}}, {"type": "Feature", "geometry": {"type": "Point", "coordinates": [2.464195646538764, 6.370328175133891]}, "properties": {"name": "Nvènamèdé", "arrondissement": "1er Arrondissement", "color": "#45cc78", "kind": "chef_lieu", "snapped": true, "snap_m": 1.2, "off_road": false, "off_road_reason": null}}, {"type": "Feature", "geometry": {"type": "Point", "coordinates": [2.312681238012783, 6.451316631502892]}, "properties": {"name": "Tokan", "arrondissement": "Togba", "color": "#d344ad", "kind": "chef_lieu", "snapped": true, "snap_m": 75.5, "off_road": false, "off_road_reason": null}}, {"type": "Feature", "geometry": {"type": "Point", "coordinates": [2.391825281707699, 6.373474566932848]}, "properties": {"name": "Houéyihô-Tannou", "arrondissement": "11ème Arrondissement", "color": "#db9443", "kind": "chef_lieu", "snapped": true, "snap_m": 1.8, "off_road": false, "off_road_reason": null}}, {"type": "Feature", "geometry": {"type": "Point", "coordinates": [2.348987052450865, 6.565948230766653]}, "properties": {"name": "Agonsoudja", "arrondissement": "Akassato", "color": "#ca9f3a", "kind": "chef_lieu", "snapped": true, "snap_m": 5.7, "off_road": false, "off_road_reason": null}}, {"type": "Feature", "geometry": {"type": "Point", "coordinates": [2.362903889533517, 6.57501197577681]}, "properties": {"name": "Dokomè", "arrondissement": "Zinvié", "color": "#75d24e", "kind": "chef_lieu", "snapped": true, "snap_m": 91.5, "off_road": false, "off_road_reason": null}}, {"type": "Feature", "geometry": {"type": "Point", "coordinates": [2.229614412516787, 6.464408858563502]}, "properties": {"name": "Dossounou", "arrondissement": "Hêvié", "color": "#da914d", "kind": "chef_lieu", "snapped": true, "snap_m": 9.0, "off_road": false, "off_road_reason": null}}, {"type": "Feature", "geometry": {"type": "Point", "coordinates": [2.363493302302318, 6.526431104267679]}, "properties": {"name": "Glo-Tokpa", "arrondissement": "Akassato", "color": "#6dc843", "kind": "chef_lieu", "snapped": true, "snap_m": 1.9, "off_road": false, "off_road_reason": null}}, {"type": "Feature", "geometry": {"type": "Point", "coordinates": [2.411955872520405, 6.363257953048819]}, "properties": {"name": "Gbégamey-Centre", "arrondissement": "11ème Arrondissement", "color": "#d042c4", "kind": "chef_lieu", "snapped": true, "snap_m": 9.4, "off_road": false, "off_road_reason": null}}, {"type": "Feature", "geometry": {"type": "Point", "coordinates": [2.364886077460708, 6.492244749147511]}, "properties": {"name": "Houèkè-Gbo", "arrondissement": "Akassato", "color": "#c141d8", "kind": "chef_lieu", "snapped": true, "snap_m": 10.6, "off_road": false, "off_road_reason": null}}, {"type": "Feature", "geometry": {"type": "Point", "coordinates": [2.383413402424734, 6.361852887532153]}, "properties": {"name": "Aïbatin-Dodo", "arrondissement": "12ème Arrondissement", "color": "#e05a40", "kind": "chef_lieu", "snapped": true, "snap_m": 12.1, "off_road": false, "off_road_reason": null}}, {"type": "Feature", "geometry": {"type": "Point", "coordinates": [2.311582854070552, 6.382395463041538]}, "properties": {"name": "Logbozounkpa", "arrondissement": "Godomey", "color": "#ce4c79", "kind": "chef_lieu", "snapped": true, "snap_m": 6.4, "off_road": false, "off_road_reason": null}}, {"type": "Feature", "geometry": {"type": "Point", "coordinates": [2.398009031378049, 6.354921678177107]}, "properties": {"name": "Haie-Vive-Cocotiers", "arrondissement": "12ème Arrondissement", "color": "#d6ca4b", "kind": "chef_lieu", "snapped": true, "snap_m": 1.9, "off_road": false, "off_road_reason": null}}, {"type": "Feature", "geometry": {"type": "Point", "coordinates": [2.465914904662656, 6.389334890159102]}, "properties": {"name": "Yénawa", "arrondissement": "2ème Arrondissement", "color": "#de4ad4", "kind": "chef_lieu", "snapped": true, "snap_m": 6.6, "off_road": false, "off_road_reason": null}}, {"type": "Feature", "geometry": {"type": "Point", "coordinates": [2.330071682554142, 6.546532273396123]}, "properties": {"name": "Azonsa", "arrondissement": "Golo-Djigbé", "color": "#41cc74", "kind": "chef_lieu", "snapped": true, "snap_m": 4.6, "off_road": false, "off_road_reason": null}}, {"type": "Feature", "geometry": {"type": "Point", "coordinates": [2.431539231644202, 6.389330948663305]}, "properties": {"name": "Ahouansori-Towéta-Kpota", "arrondissement": "6ème Arrondissement", "color": "#62d440", "kind": "chef_lieu", "snapped": true, "snap_m": 2.4, "off_road": false, "off_road_reason": null}}, {"type": "Feature", "geometry": {"type": "Point", "coordinates": [2.394262886647069, 6.368311456026358]}, "properties": {"name": "Houéyihô", "arrondissement": "11ème Arrondissement", "color": "#3edc5e", "kind": "chef_lieu", "snapped": true, "snap_m": 2.0, "off_road": false, "off_road_reason": null}}, {"type": "Feature", "geometry": {"type": "Point", "coordinates": [2.33748612782928, 6.435227679926117]}, "properties": {"name": "Tchinangbégbo\n", "arrondissement": "Abomey-Calavi", "color": "#ca714a", "kind": "chef_lieu", "snapped": true, "snap_m": 14.2, "off_road": false, "off_road_reason": null}}, {"type": "Feature", "geometry": {"type": "Point", "coordinates": [2.328928146632109, 6.578526935354573]}, "properties": {"name": "Adjogansa", "arrondissement": "Zinvié", "color": "#d2a04a", "kind": "chef_lieu", "snapped": true, "snap_m": 7.9, "off_road": false, "off_road_reason": null}}, {"type": "Feature", "geometry": {"type": "Point", "coordinates": [2.329580233192163, 6.377794753945093]}, "properties": {"name": "Dèkoungbé\n", "arrondissement": "Godomey", "color": "#49da4d", "kind": "chef_lieu", "snapped": true, "snap_m": 7.0, "off_road": false, "off_road_reason": null}}, {"type": "Feature", "geometry": {"type": "Point", "coordinates": [2.396318770901341, 6.388490106662927]}, "properties": {"name": "Yénawa-Fifadji", "arrondissement": "10ème Arrondissement", "color": "#b2c93f", "kind": "chef_lieu", "snapped": true, "snap_m": 7.5, "off_road": false, "off_road_reason": null}}, {"type": "Feature", "geometry": {"type": "Point", "coordinates": [2.431660515703713, 6.361833955405409]}, "properties": {"name": "Missité", "arrondissement": "5ème Arrondissement", "color": "#d13e52", "kind": "chef_lieu", "snapped": true, "snap_m": 5.7, "off_road": false, "off_road_reason": null}}, {"type": "Feature", "geometry": {"type": "Point", "coordinates": [2.31387143190611, 6.358267537341501]}, "properties": {"name": "Togbin-Kpèvi", "arrondissement": "Godomey", "color": "#d93da2", "kind": "chef_lieu", "snapped": true, "snap_m": 9.1, "off_road": false, "off_road_reason": null}}, {"type": "Feature", "geometry": {"type": "Point", "coordinates": [2.346964272713087, 6.384958316897507]}, "properties": {"name": "Plateau\n", "arrondissement": "Godomey", "color": "#c7486a", "kind": "chef_lieu", "snapped": true, "snap_m": 13.0, "off_road": false, "off_road_reason": null}}, {"type": "Feature", "geometry": {"type": "Point", "coordinates": [2.266889234981924, 6.484229858128032]}, "properties": {"name": "Kpossidja", "arrondissement": "Ouèdo", "color": "#cfb848", "kind": "chef_lieu", "snapped": true, "snap_m": 10.5, "off_road": false, "off_road_reason": null}}, {"type": "Feature", "geometry": {"type": "Point", "coordinates": [2.431525249936954, 6.359291516071079]}, "properties": {"name": "Avlékété-Joncquet", "arrondissement": "5ème Arrondissement", "color": "#c4d747", "kind": "chef_lieu", "snapped": true, "snap_m": 5.6, "off_road": false, "off_road_reason": null}}, {"type": "Feature", "geometry": {"type": "Point", "coordinates": [2.446855480385761, 6.369916675369505]}, "properties": {"name": "Gbèdjèwin", "arrondissement": "4ème Arrondissement", "color": "#46df9f", "kind": "chef_lieu", "snapped": true, "snap_m": 5.2, "off_road": false, "off_road_reason": null}}, {"type": "Feature", "geometry": {"type": "Point", "coordinates": [2.312787897859657, 6.389041158800313]}, "properties": {"name": "La-Paix\n", "arrondissement": "Godomey", "color": "#cd5c3d", "kind": "chef_lieu", "snapped": true, "snap_m": 8.8, "off_road": false, "off_road_reason": null}}, {"type": "Feature", "geometry": {"type": "Point", "coordinates": [2.328511410698429, 6.469970429017047]}, "properties": {"name": "Aïfa-Calavi", "arrondissement": "Abomey-Calavi", "color": "#62d53b", "kind": "chef_lieu", "snapped": true, "snap_m": 7.2, "off_road": false, "off_road_reason": null}}, {"type": "Feature", "geometry": {"type": "Point", "coordinates": [2.345129388631311, 6.394570457391367]}, "properties": {"name": "Nonhouénou\n", "arrondissement": "Godomey", "color": "#dd8d50", "kind": "chef_lieu", "snapped": true, "snap_m": 0.6, "off_road": false, "off_road_reason": null}}, {"type": "Feature", "geometry": {"type": "Point", "coordinates": [2.328717883866807, 6.402108656476065]}, "properties": {"name": "Hounsa-Agbodokpa\n", "arrondissement": "Godomey", "color": "#46cb65", "kind": "chef_lieu", "snapped": true, "snap_m": 10.8, "off_road": false, "off_road_reason": null}}, {"type": "Feature", "geometry": {"type": "Point", "coordinates": [2.381211463130722, 6.390657530184552]}, "properties": {"name": "Zogbohouè", "arrondissement": "9ème Arrondissement", "color": "#d3455f", "kind": "chef_lieu", "snapped": true, "snap_m": 3.1, "off_road": false, "off_road_reason": null}}, {"type": "Feature", "geometry": {"type": "Point", "coordinates": [2.432327024389909, 6.385493354470204]}, "properties": {"name": "Djidjè-Aïchédji", "arrondissement": "6ème Arrondissement", "color": "#dbc944", "kind": "chef_lieu", "snapped": true, "snap_m": 0.6, "off_road": false, "off_road_reason": null}}, {"type": "Feature", "geometry": {"type": "Point", "coordinates": [2.397775064392104, 6.382847037296844]}, "properties": {"name": "Gbénonkpô", "arrondissement": "10ème Arrondissement", "color": "#c9803b", "kind": "chef_lieu", "snapped": true, "snap_m": 52.2, "off_road": false, "off_road_reason": null}}, {"type": "Feature", "geometry": {"type": "Point", "coordinates": [2.316319767537738, 6.575138471982184]}, "properties": {"name": "Golo-Fanto", "arrondissement": "Golo-Djigbé", "color": "#4fd178", "kind": "chef_lieu", "snapped": true, "snap_m": 17.0, "off_road": false, "off_road_reason": null}}, {"type": "Feature", "geometry": {"type": "Point", "coordinates": [2.346424148396105, 6.390356647794413]}, "properties": {"name": "Yolomahouto", "arrondissement": "Godomey", "color": "#4ed97f", "kind": "chef_lieu", "snapped": true, "snap_m": 5.3, "off_road": false, "off_road_reason": null}}, {"type": "Feature", "geometry": {"type": "Point", "coordinates": [2.41672172023827, 6.370902842008034]}, "properties": {"name": "Énagnon-Sikê", "arrondissement": "7ème Arrondissement", "color": "#c8bd45", "kind": "chef_lieu", "snapped": true, "snap_m": 10.0, "off_road": false, "off_road_reason": null}}, {"type": "Feature", "geometry": {"type": "Point", "coordinates": [2.354151802371591, 6.445881337612267]}, "properties": {"name": "Agori", "arrondissement": "Abomey-Calavi", "color": "#c644d0", "kind": "chef_lieu", "snapped": true, "snap_m": 30.2, "off_road": false, "off_road_reason": null}}, {"type": "Feature", "geometry": {"type": "Point", "coordinates": [2.43587997480736, 6.356530124670067]}, "properties": {"name": "Guinkômey", "arrondissement": "5ème Arrondissement", "color": "#bfd743", "kind": "chef_lieu", "snapped": true, "snap_m": 33.0, "off_road": false, "off_road_reason": null}}, {"type": "Feature", "geometry": {"type": "Point", "coordinates": [2.347182671292094, 6.358345749428059]}, "properties": {"name": "Akôgbato", "arrondissement": "12ème Arrondissement", "color": "#df4169", "kind": "chef_lieu", "snapped": true, "snap_m": 3.5, "off_road": false, "off_road_reason": null}}, {"type": "Feature", "geometry": {"type": "Point", "coordinates": [2.449616569294463, 6.382406593713229]}, "properties": {"name": "Ayélawadjè-Agongbomè", "arrondissement": "3ème Arrondissement", "color": "#83ce4d", "kind": "chef_lieu", "snapped": true, "snap_m": 5.1, "off_road": false, "off_road_reason": null}}, {"type": "Feature", "geometry": {"type": "Point", "coordinates": [2.446385294355958, 6.363355647984823]}, "properties": {"name": "Ohé", "arrondissement": "4ème Arrondissement", "color": "#d64d93", "kind": "chef_lieu", "snapped": true, "snap_m": 21.0, "off_road": false, "off_road_reason": null}}, {"type": "Feature", "geometry": {"type": "Point", "coordinates": [2.331974718588628, 6.567022391310692]}, "properties": {"name": "Lohoussa", "arrondissement": "Golo-Djigbé", "color": "#de4cde", "kind": "chef_lieu", "snapped": true, "snap_m": 6.7, "off_road": false, "off_road_reason": null}}, {"type": "Feature", "geometry": {"type": "Point", "coordinates": [2.364813213041965, 6.608679149132333]}, "properties": {"name": "Yèvié-Nougo", "arrondissement": "Zinvié", "color": "#ae42cc", "kind": "chef_lieu", "snapped": true, "snap_m": 9.6, "off_road": false, "off_road_reason": null}}, {"type": "Feature", "geometry": {"type": "Point", "coordinates": [2.431891957253669, 6.380253588059678]}, "properties": {"name": "Djidjè", "arrondissement": "6ème Arrondissement", "color": "#a5d441", "kind": "chef_lieu", "snapped": true, "snap_m": 3.9, "off_road": false, "off_road_reason": null}}, {"type": "Feature", "geometry": {"type": "Point", "coordinates": [2.378633663780833, 6.383530792847346]}, "properties": {"name": "Kouhounou", "arrondissement": "10ème Arrondissement", "color": "#dcca40", "kind": "chef_lieu", "snapped": true, "snap_m": 7.0, "off_road": false, "off_road_reason": null}}, {"type": "Feature", "geometry": {"type": "Point", "coordinates": [2.463448492283092, 6.37964568698232]}, "properties": {"name": "Suru-Léré", "arrondissement": "1er Arrondissement", "color": "#ca4c98", "kind": "chef_lieu", "snapped": true, "snap_m": 8.7, "off_road": false, "off_road_reason": null}}, {"type": "Feature", "geometry": {"type": "Point", "coordinates": [2.45162545178393, 6.371891327869804]}, "properties": {"name": "Fifatin", "arrondissement": "3ème Arrondissement", "color": "#4bd29e", "kind": "chef_lieu", "snapped": true, "snap_m": 11.8, "off_road": false, "off_road_reason": null}}, {"type": "Feature", "geometry": {"type": "Point", "coordinates": [2.357438215918593, 6.481314514426527]}, "properties": {"name": "Zopah-Kokpo", "arrondissement": "Abomey-Calavi", "color": "#dada4a", "kind": "chef_lieu", "snapped": true, "snap_m": 12.5, "off_road": false, "off_road_reason": null}}, {"type": "Feature", "geometry": {"type": "Point", "coordinates": [2.314626207942807, 6.375649237311886]}, "properties": {"name": "Gninkindji\n", "arrondissement": "Godomey", "color": "#c8419d", "kind": "chef_lieu", "snapped": true, "snap_m": 6.6, "off_road": false, "off_road_reason": null}}, {"type": "Feature", "geometry": {"type": "Point", "coordinates": [2.447000133592554, 6.392952722609263]}, "properties": {"name": "Agbodjèdo", "arrondissement": "3ème Arrondissement", "color": "#88d040", "kind": "chef_lieu", "snapped": true, "snap_m": 6.6, "off_road": false, "off_road_reason": null}}, {"type": "Feature", "geometry": {"type": "Point", "coordinates": [2.361351013448613, 6.562163550445428]}, "properties": {"name": "Kpodji-Les-Monts", "arrondissement": "Akassato", "color": "#d83eb2", "kind": "chef_lieu", "snapped": true, "snap_m": 15.8, "off_road": false, "off_road_reason": null}}, {"type": "Feature", "geometry": {"type": "Point", "coordinates": [2.367740697975946, 6.383055532076955]}, "properties": {"name": "Agla-Les-Pylônes", "arrondissement": "13ème Arrondissement", "color": "#c74a93", "kind": "chef_lieu", "snapped": true, "snap_m": 5.7, "off_road": false, "off_road_reason": null}}, {"type": "Feature", "geometry": {"type": "Point", "coordinates": [2.316385226789951, 6.594109258611617]}, "properties": {"name": "Alladacomè", "arrondissement": "Golo-Djigbé", "color": "#cf6b49", "kind": "chef_lieu", "snapped": true, "snap_m": 1.5, "off_road": false, "off_road_reason": null}}, {"type": "Feature", "geometry": {"type": "Point", "coordinates": [2.415044353541303, 6.366970430716536]}, "properties": {"name": "Saint-Jean-Gbèdiga", "arrondissement": "11ème Arrondissement", "color": "#86d648", "kind": "chef_lieu", "snapped": true, "snap_m": 10.7, "off_road": false, "off_road_reason": null}}, {"type": "Feature", "geometry": {"type": "Point", "coordinates": [2.338044614421109, 6.423262040776687]}, "properties": {"name": "Zogbadjè", "arrondissement": "Abomey-Calavi", "color": "#de47cf", "kind": "chef_lieu", "snapped": true, "snap_m": 1.2, "off_road": false, "off_road_reason": null}}, {"type": "Feature", "geometry": {"type": "Point", "coordinates": [2.398977143108593, 6.377940684098785]}, "properties": {"name": "Tonato", "arrondissement": "8ème Arrondissement", "color": "#3ecd8a", "kind": "chef_lieu", "snapped": true, "snap_m": 32.4, "off_road": false, "off_road_reason": null}}, {"type": "Feature", "geometry": {"type": "Point", "coordinates": [2.363429270767735, 6.373973678226093]}, "properties": {"name": "Agla-Agongbomey", "arrondissement": "13ème Arrondissement", "color": "#3dd5a5", "kind": "chef_lieu", "snapped": true, "snap_m": 9.3, "off_road": false, "off_road_reason": null}}, {"type": "Feature", "geometry": {"type": "Point", "coordinates": [2.368289448846165, 6.371343520477224]}, "properties": {"name": "Agla-Finafa", "arrondissement": "13ème Arrondissement", "color": "#dd52c1", "kind": "chef_lieu", "snapped": true, "snap_m": 8.0, "off_road": false, "off_road_reason": null}}, {"type": "Feature", "geometry": {"type": "Point", "coordinates": [2.43186304116784, 6.377379963269495]}, "properties": {"name": "Hindé-Nord", "arrondissement": "6ème Arrondissement", "color": "#cb7648", "kind": "chef_lieu", "snapped": true, "snap_m": 7.6, "off_road": false, "off_road_reason": null}}, {"type": "Feature", "geometry": {"type": "Point", "coordinates": [2.300386176203758, 6.385835011059971]}, "properties": {"name": "Cocotomey", "arrondissement": "Godomey", "color": "#88d347", "kind": "chef_lieu", "snapped": true, "snap_m": 10.8, "off_road": false, "off_road_reason": null}}, {"type": "Feature", "geometry": {"type": "Point", "coordinates": [2.352118671616734, 6.390683419830919]}, "properties": {"name": "Sèdjannako\n", "arrondissement": "Godomey", "color": "#46db98", "kind": "chef_lieu", "snapped": true, "snap_m": 9.7, "off_road": false, "off_road_reason": null}}, {"type": "Feature", "geometry": {"type": "Point", "coordinates": [2.4185030780791, 6.358260584770719]}, "properties": {"name": "Gbèdiga-Guêdêhounguè", "arrondissement": "11ème Arrondissement", "color": "#abc93d", "kind": "chef_lieu", "snapped": true, "snap_m": 4.7, "off_road": false, "off_road_reason": null}}, {"type": "Feature", "geometry": {"type": "Point", "coordinates": [2.250046085674287, 6.487313582794665]}, "properties": {"name": "Dassèkomey", "arrondissement": "Ouèdo", "color": "#d13bc2", "kind": "chef_lieu", "snapped": true, "snap_m": 4.6, "off_road": false, "off_road_reason": null}}, {"type": "Feature", "geometry": {"type": "Point", "coordinates": [2.418034616187062, 6.369301579703415]}, "properties": {"name": "Sèhogan-Sikê", "arrondissement": "7ème Arrondissement", "color": "#50d957", "kind": "chef_lieu", "snapped": true, "snap_m": 7.5, "off_road": false, "off_road_reason": null}}, {"type": "Feature", "geometry": {"type": "Point", "coordinates": [2.381766767131515, 6.673653318057782]}, "properties": {"name": "Hadjanaho", "arrondissement": "Kpanroun", "color": "#c7bf46", "kind": "chef_lieu", "snapped": true, "snap_m": 10.1, "off_road": false, "off_road_reason": null}}, {"type": "Feature", "geometry": {"type": "Point", "coordinates": [2.453660894955292, 6.360612201797002]}, "properties": {"name": "Énagnon", "arrondissement": "4ème Arrondissement", "color": "#68cf45", "kind": "chef_lieu", "snapped": true, "snap_m": 12.0, "off_road": false, "off_road_reason": null}}, {"type": "Feature", "geometry": {"type": "Point", "coordinates": [2.299853153206487, 6.495076859534596]}, "properties": {"name": "Drabo", "arrondissement": "Togba", "color": "#d744c9", "kind": "chef_lieu", "snapped": true, "snap_m": 4.0, "off_road": false, "off_road_reason": null}}, {"type": "Feature", "geometry": {"type": "Point", "coordinates": [2.432568212999587, 6.371018469496023]}, "properties": {"name": "Dantôkpa", "arrondissement": "6ème Arrondissement", "color": "#43df62", "kind": "chef_lieu", "snapped": true, "snap_m": 6.5, "off_road": false, "off_road_reason": null}}, {"type": "Feature", "geometry": {"type": "Point", "coordinates": [2.367092625408734, 6.377357179359895]}, "properties": {"name": "Agla-Centre", "arrondissement": "13ème Arrondissement", "color": "#a63ace", "kind": "chef_lieu", "snapped": true, "snap_m": 6.7, "off_road": false, "off_road_reason": null}}, {"type": "Feature", "geometry": {"type": "Point", "coordinates": [2.464842367616441, 6.363426471124093]}, "properties": {"name": "Donaten", "arrondissement": "1er Arrondissement", "color": "#a84ed5", "kind": "chef_lieu", "snapped": true, "snap_m": 10.9, "off_road": false, "off_road_reason": null}}, {"type": "Feature", "geometry": {"type": "Point", "coordinates": [2.284820271937778, 6.474375830764465]}, "properties": {"name": "Adjagbo-Aïdjèdo", "arrondissement": "Ouèdo", "color": "#cd4ddd", "kind": "chef_lieu", "snapped": true, "snap_m": 17.6, "off_road": false, "off_road_reason": null}}, {"type": "Feature", "geometry": {"type": "Point", "coordinates": [2.398567606789882, 6.369118986939879]}, "properties": {"name": "Vodjè-Kpota", "arrondissement": "12ème Arrondissement", "color": "#cc4446", "kind": "chef_lieu", "snapped": true, "snap_m": 8.1, "off_road": false, "off_road_reason": null}}, {"type": "Feature", "geometry": {"type": "Point", "coordinates": [2.385528716120703, 6.365765743773713]}, "properties": {"name": "Gbèdégbé", "arrondissement": "13ème Arrondissement", "color": "#d443c3", "kind": "chef_lieu", "snapped": true, "snap_m": 12.0, "off_road": false, "off_road_reason": null}}, {"type": "Feature", "geometry": {"type": "Point", "coordinates": [2.346280095006697, 6.53704494492878]}, "properties": {"name": "Gbétagbo", "arrondissement": "Akassato", "color": "#dc4191", "kind": "chef_lieu", "snapped": true, "snap_m": 21.1, "off_road": false, "off_road_reason": null}}, {"type": "Feature", "geometry": {"type": "Point", "coordinates": [2.283491817678333, 6.36976615675345]}, "properties": {"name": "Djèkpota", "arrondissement": "Godomey", "color": "#39ca56", "kind": "chef_lieu", "snapped": true, "snap_m": 15.2, "off_road": false, "off_road_reason": null}}, {"type": "Feature", "geometry": {"type": "Point", "coordinates": [2.234810481599252, 6.408391219133342]}, "properties": {"name": "Houinmè-Daho", "arrondissement": "Hêvié", "color": "#9cd24c", "kind": "chef_lieu", "snapped": true, "snap_m": 10.0, "off_road": false, "off_road_reason": null}}, {"type": "Feature", "geometry": {"type": "Point", "coordinates": [2.435104782169853, 6.367862983609162]}, "properties": {"name": "Bocossi-Tokpa", "arrondissement": "5ème Arrondissement", "color": "#ce4bda", "kind": "chef_lieu", "snapped": true, "snap_m": 5.3, "off_road": false, "off_road_reason": null}}, {"type": "Feature", "geometry": {"type": "Point", "coordinates": [2.3461242667591, 6.49141290548024]}, "properties": {"name": "Zopah-Akassato", "arrondissement": "Akassato", "color": "#c84244", "kind": "chef_lieu", "snapped": true, "snap_m": 20.5, "off_road": false, "off_road_reason": null}}, {"type": "Feature", "geometry": {"type": "Point", "coordinates": [2.318434759154452, 6.459212335618542]}, "properties": {"name": "Ahossougbéta", "arrondissement": "Togba", "color": "#a0d041", "kind": "chef_lieu", "snapped": true, "snap_m": 3.5, "off_road": false, "off_road_reason": null}}, {"type": "Feature", "geometry": {"type": "Point", "coordinates": [2.268156193538336, 6.432180143847461]}, "properties": {"name": "Alansankomè", "arrondissement": "Ouèdo", "color": "#d8405e", "kind": "chef_lieu", "snapped": true, "snap_m": 18.3, "off_road": false, "off_road_reason": null}}, {"type": "Feature", "geometry": {"type": "Point", "coordinates": [2.449508894833289, 6.375064401852842]}, "properties": {"name": "Ayélawadjè", "arrondissement": "3ème Arrondissement", "color": "#b24bc6", "kind": "chef_lieu", "snapped": true, "snap_m": 15.7, "off_road": false, "off_road_reason": null}}, {"type": "Feature", "geometry": {"type": "Point", "coordinates": [2.416276155970335, 6.384379684538224]}, "properties": {"name": "Gbèdjromèdè-Nord", "arrondissement": "6ème Arrondissement", "color": "#ce4bab", "kind": "chef_lieu", "snapped": true, "snap_m": 9.6, "off_road": false, "off_road_reason": null}}, {"type": "Feature", "geometry": {"type": "Point", "coordinates": [2.347948807593589, 6.393210283670465]}, "properties": {"name": "Hlouacomey", "arrondissement": "Godomey", "color": "#bfd64a", "kind": "chef_lieu", "snapped": true, "snap_m": 6.1, "off_road": false, "off_road_reason": null}}, {"type": "Feature", "geometry": {"type": "Point", "coordinates": [2.30851225496917, 6.484521446433421]}, "properties": {"name": "Ouéga-Agué", "arrondissement": "Togba", "color": "#c3de49", "kind": "chef_lieu", "snapped": true, "snap_m": 3.7, "off_road": false, "off_road_reason": null}}, {"type": "Feature", "geometry": {"type": "Point", "coordinates": [2.36494856158701, 6.675582143600403]}, "properties": {"name": "Kpanroun", "arrondissement": "Kpanroun", "color": "#cd3fbe", "kind": "chef_lieu", "snapped": true, "snap_m": 2.5, "off_road": false, "off_road_reason": null}}, {"type": "Feature", "geometry": {"type": "Point", "coordinates": [2.243794160106147, 6.447090144798646]}, "properties": {"name": "Hêvié", "arrondissement": "Hêvié", "color": "#d47f3e", "kind": "chef_lieu", "snapped": true, "snap_m": 1.3, "off_road": false, "off_road_reason": null}}, {"type": "Feature", "geometry": {"type": "Point", "coordinates": [2.364538180771626, 6.506143317843183]}, "properties": {"name": "Akassato", "arrondissement": "Akassato", "color": "#d553dc", "kind": "chef_lieu", "snapped": true, "snap_m": 6.0, "off_road": false, "off_road_reason": null}}, {"type": "Feature", "geometry": {"type": "Point", "coordinates": [2.259939973131943, 6.4561540112843]}, "properties": {"name": "Ouèdo", "arrondissement": "Ouèdo", "color": "#49cb90", "kind": "chef_lieu", "snapped": true, "snap_m": 4.0, "off_road": false, "off_road_reason": null}}, {"type": "Feature", "geometry": {"type": "Point", "coordinates": [2.299820627390529, 6.559616245688551]}, "properties": {"name": "Golo-Djigbé", "arrondissement": "Golo-Djigbé", "color": "#d36f48", "kind": "chef_lieu", "snapped": true, "snap_m": 6.4, "off_road": false, "off_road_reason": null}}, {"type": "Feature", "geometry": {"type": "Point", "coordinates": [2.295115343495001, 6.4441601919452]}, "properties": {"name": "Togba_Maria-Gléta", "arrondissement": "Togba", "color": "#db47d1", "kind": "chef_lieu", "snapped": true, "snap_m": 5.9, "off_road": false, "off_road_reason": null}}, {"type": "Feature", "geometry": {"type": "Point", "coordinates": [2.28654677038847, 6.40426358091059]}, "properties": {"name": "Womey-Yénawa", "arrondissement": "Godomey", "color": "#c93e43", "kind": "chef_lieu", "snapped": true, "snap_m": 8.5, "off_road": false, "off_road_reason": null}}, {"type": "Feature", "geometry": {"type": "Point", "coordinates": [2.4432639, 6.3708779]}, "properties": {"kind": "collision", "between": ["Misséssin", "Gbénonkpô"], "color_a": "#49cf57", "color_b": "#dc8c41"}}, {"type": "Feature", "geometry": {"type": "Point", "coordinates": [2.4429399, 6.3712668]}, "properties": {"kind": "collision", "between": ["Gbénonkpô", "Misséssin"], "color_a": "#dc8c41", "color_b": "#49cf57"}}, {"type": "Feature", "geometry": {"type": "Point", "coordinates": [2.4040503, 6.3678552]}, "properties": {"kind": "collision", "between": ["Cadjèhoun-Détinsa", "Vodjè-Centre"], "color_a": "#c7b04a", "color_b": "#67cc42"}}, {"type": "Feature", "geometry": {"type": "Point", "coordinates": [2.4112049777777775, 6.370427133333333]}, "properties": {"kind": "collision", "between": ["Gbégamey-Gbagoudo", "Dagbédji-Sikê"], "color_a": "#bf45c8", "color_b": "#67d746"}}, {"type": "Feature", "geometry": {"type": "Point", "coordinates": [2.438322466666667, 6.357858633333334]}, "properties": {"kind": "collision", "between": ["Guinkômey", "Tokpa-Hoho"], "color_a": "#bfd743", "color_b": "#c93b5f"}}, {"type": "Feature", "geometry": {"type": "Point", "coordinates": [2.4117600666666665, 6.369958333333334]}, "properties": {"kind": "collision", "between": ["Dagbédji-Sikê", "Gbégamey-Gbagoudo"], "color_a": "#67d746", "color_b": "#bf45c8"}}, {"type": "Feature", "geometry": {"type": "Point", "coordinates": [2.4175273, 6.3699767]}, "properties": {"kind": "collision", "between": ["Sèhogan-Sikê", "Énagnon-Sikê"], "color_a": "#50d957", "color_b": "#c8bd45"}}, {"type": "Feature", "geometry": {"type": "Point", "coordinates": [2.4037986, 6.3676937]}, "properties": {"kind": "collision", "between": ["Cadjèhoun-Détinsa", "Vodjè-Centre"], "color_a": "#c7b04a", "color_b": "#67cc42"}}, {"type": "Feature", "geometry": {"type": "Point", "coordinates": [2.4427486, 6.3704627]}, "properties": {"kind": "collision", "between": ["Misséssin", "Gbénonkpô"], "color_a": "#49cf57", "color_b": "#dc8c41"}}, {"type": "Feature", "geometry": {"type": "Point", "coordinates": [2.4079386, 6.3699196]}, "properties": {"kind": "collision", "between": ["Vodjè-Allobatin", "Gbégamey-Gbagoudo"], "color_a": "#4fd56c", "color_b": "#bf45c8"}}, {"type": "Feature", "geometry": {"type": "Point", "coordinates": [2.346252290909091, 6.393731145454546]}, "properties": {"kind": "collision", "between": ["Nonhouénou\n", "Hlouacomey"], "color_a": "#dd8d50", "color_b": "#bfd64a"}}, {"type": "Feature", "geometry": {"type": "Point", "coordinates": [2.346252290909091, 6.393731145454546]}, "properties": {"kind": "collision", "between": ["Nonhouénou\n", "Hlouacomey"], "color_a": "#dd8d50", "color_b": "#bfd64a"}}, {"type": "Feature", "geometry": {"type": "Point", "coordinates": [2.4487036, 6.3696188000000005]}, "properties": {"kind": "collision", "between": ["Gbèdjèwin", "Sodjatinmè-Ouest"], "color_a": "#46df9f", "color_b": "#d0aa44"}}, {"type": "Feature", "geometry": {"type": "Point", "coordinates": [2.40369875, 6.36832965]}, "properties": {"kind": "collision", "between": ["Vodjè-Centre", "Cadjèhoun-Détinsa"], "color_a": "#67cc42", "color_b": "#c7b04a"}}, {"type": "Feature", "geometry": {"type": "Point", "coordinates": [2.4034164, 6.3681069]}, "properties": {"kind": "collision", "between": ["Vodjè-Centre", "Cadjèhoun-Détinsa"], "color_a": "#67cc42", "color_b": "#c7b04a"}}, {"type": "Feature", "geometry": {"type": "Point", "coordinates": [2.34659835, 6.39366135]}, "properties": {"kind": "collision", "between": ["Hlouacomey", "Nonhouénou\n"], "color_a": "#bfd64a", "color_b": "#dd8d50"}}, {"type": "Feature", "geometry": {"type": "Point", "coordinates": [2.4488215, 6.3694714]}, "properties": {"kind": "collision", "between": ["Sodjatinmè-Ouest", "Gbèdjèwin"], "color_a": "#d0aa44", "color_b": "#46df9f"}}, {"type": "Feature", "geometry": {"type": "Point", "coordinates": [2.4385478, 6.3580357]}, "properties": {"kind": "collision", "between": ["Tokpa-Hoho", "Guinkômey"], "color_a": "#c93b5f", "color_b": "#bfd743"}}, {"type": "Feature", "geometry": {"type": "Point", "coordinates": [2.4485733, 6.3695147]}, "properties": {"kind": "collision", "between": ["Gbèdjèwin", "Sodjatinmè-Ouest"], "color_a": "#46df9f", "color_b": "#d0aa44"}}, {"type": "Feature", "geometry": {"type": "Point", "coordinates": [2.4115253, 6.3698134]}, "properties": {"kind": "collision", "between": ["Dagbédji-Sikê", "Gbégamey-Gbagoudo"], "color_a": "#67d746", "color_b": "#bf45c8"}}, {"type": "Feature", "geometry": {"type": "Point", "coordinates": [2.346252290909091, 6.393731145454546]}, "properties": {"kind": "collision", "between": ["Nonhouénou\n", "Hlouacomey"], "color_a": "#dd8d50", "color_b": "#bfd64a"}}, {"type": "Feature", "geometry": {"type": "Point", "coordinates": [2.39030775, 6.36612335]}, "properties": {"kind": "collision", "between": ["Houénoussou", "Missité"], "color_a": "#dfb041", "color_b": "#d43e52"}}, {"type": "Feature", "geometry": {"type": "Point", "coordinates": [2.4445781, 6.375828]}, "properties": {"kind": "collision", "between": ["Adjégounlè", "Midombo"], "color_a": "#7cca39", "color_b": "#50d9b9"}}, {"type": "Feature", "geometry": {"type": "Point", "coordinates": [2.3469463, 6.3920664]}, "properties": {"kind": "collision", "between": ["Yolomahouto", "Hlouacomey"], "color_a": "#4ed97f", "color_b": "#bfd64a"}}, {"type": "Feature", "geometry": {"type": "Point", "coordinates": [2.4308091, 6.3628879]}, "properties": {"kind": "collision", "between": ["Missité", "Gbédokpo"], "color_a": "#d13e52", "color_b": "#51d9b7"}}, {"type": "Feature", "geometry": {"type": "Point", "coordinates": [2.4485863749999996, 6.393089475]}, "properties": {"kind": "collision", "between": ["Minontchou", "Agbodjèdo"], "color_a": "#d34580", "color_b": "#88d040"}}, {"type": "Feature", "geometry": {"type": "Point", "coordinates": [2.4308091, 6.3628879]}, "properties": {"kind": "collision", "between": ["Missité", "Gbédokpo"], "color_a": "#d13e52", "color_b": "#51d9b7"}}, {"type": "Feature", "geometry": {"type": "Point", "coordinates": [2.4407137, 6.387249]}, "properties": {"kind": "collision", "between": ["Adôgléta", "Hlacômey"], "color_a": "#90d348", "color_b": "#de4a5e"}}, {"type": "Feature", "geometry": {"type": "Point", "coordinates": [2.3466848000000002, 6.39353105]}, "properties": {"kind": "collision", "between": ["Hlouacomey", "Nonhouénou\n"], "color_a": "#bfd64a", "color_b": "#dd8d50"}}, {"type": "Feature", "geometry": {"type": "Point", "coordinates": [2.437625757317073, 6.3575028341463415]}, "properties": {"kind": "collision", "between": ["Guinkômey", "Tokpa-Hoho"], "color_a": "#bfd743", "color_b": "#c93b5f"}}, {"type": "Feature", "geometry": {"type": "Point", "coordinates": [2.4309241, 6.3629785]}, "properties": {"kind": "collision", "between": ["Gbédokpo", "Missité"], "color_a": "#51d9b7", "color_b": "#d13e52"}}, {"type": "Feature", "geometry": {"type": "Point", "coordinates": [2.4110631, 6.3702005]},